esb_idx,jakarta_idx,brandName_esb,branchName_esb,latitude_esb,longitude_esb,brandName_jakarta,nama_restoran_jakarta,latitude_jakarta,longitude_jakarta,distance_m,name_similarity,token_overlap,match_confidence,match_reason
33,17270, uduk ci rina,NASI UDUK CI RINA,-6.148,106.83,  uduk ci rina,Warung Nasi Uduk CI Rina,-6.148,106.83,0.0,1.0,1.0,0.95,exact_location_moderate_name
7253,4890,oelek,Warung Oelek Bakar - Semanan (NONAKTIF),-6.164,106.723, oelek bakar semanan,Warung Oelek Bakar Semanan,-6.164,106.723,0.0,0.558,0.333,0.95,exact_location_moderate_name
7173,23602,noru,NORU,-6.215,106.826,noru rooftop lounge ,NORU Rooftop Lounge Jakarta,-6.215,106.826,0.0,0.538,0.333,0.95,exact_location_moderate_name
7168,18279,noodleman,Noodleman - Cempaka Putih,-6.172,106.87,noodleman,NoodleMan,-6.172,106.87,0.0,1.0,1.0,0.95,exact_location_moderate_name
7083,47458,neu neu steak pik,Neu Neu Steak PIK,-6.09,106.745,neu neu taiwanese steak,Neu Neu Taiwanese Steak,-6.09,106.745,0.0,0.395,0.667,0.75,token_overlap_close
7061,50479,naughty olive,Naughty Olive,-6.148,106.896,naughty olive,Naughty Olive,-6.148,106.896,0.0,1.0,1.0,0.95,exact_location_moderate_name
7048,47562,native,Native Tribe PIK East Coast,-6.092,106.747,native tribe east coast,Native Tribe East Coast,-6.092,106.747,0.0,0.524,0.25,0.95,exact_location_moderate_name
7610,35607,pempek pak raden fatmawati,Pempek Pak Raden Fatmawati,-6.29,106.795,seafood zonatri 68 fatmawati,SEAFOOD ZONATRI 68 FATMAWATI,-6.29,106.795,0.0,0.213,0.0,0.5,second_pass_relaxed
7026,3362, uduk nikmat 79,Nasi Uduk Nikmat 79,-6.192,106.785, uduk nikmat 79  ke2 berac,Nasi Uduk Nikmat 79 Cabang ke2 berAC,-6.192,106.785,0.0,0.761,0.6,0.95,exact_location_moderate_name
7022,24330, uduk cipete,Nasi Uduk Cipete - Cipete,-6.278,106.798,papo cipete,PAPO Cipete,-6.278,106.798,0.0,0.324,0.5,0.6,relaxed_wide_net
7021,39971, uduk bu gendut,Nasi Uduk Bu Gendut,-6.249,106.942, uduk bu gendut,Nasi uduk bu gendut,-6.249,106.942,0.0,1.0,1.0,0.95,exact_location_moderate_name
7020,60707, uduk babeh ali,Nasi Uduk Babeh Ali - Jelambar Aladin,-6.143,106.786, uduk babeh ali  jelambar aladin,Nasi Uduk Babeh Ali - Jelambar Aladin,-6.143,106.786,0.0,0.731,0.6,0.95,exact_location_moderate_name
7018,8537, uduk   goreng lahap,Nasi Uduk & Ayam Goreng Lahap,-6.175,106.783, uduk dan  goreng lahap,Nasi Uduk Dan Ayam Goreng Lahap,-6.175,106.783,0.0,0.568,0.75,0.95,exact_location_moderate_name
7014,48690, tempong nyo by gading marten,Nasi Tempong Nyo By Gading Marten,-6.088,106.732, tempong nyo by gading marten,Nasi Tempong Nyo by Gading Marten,-6.088,106.732,0.0,1.0,1.0,0.95,exact_location_moderate_name
6998,6002, peda lombok hijau,NASI PEDA LOMBOK HIJAU,-6.192,106.784, peda lombok hijau,Nasi Peda Lombok Hijau,-6.192,106.784,0.0,1.0,1.0,0.95,exact_location_moderate_name
7025,27862, uduk mpo zuko,Nasi Uduk Mpo Zuko,-6.346,106.805, uduk betawi mpo zuko,Nasi Uduk Betawi Mpo Zuko,-6.346,106.805,0.0,0.536,0.75,0.95,exact_location_moderate_name
7292,19821,ohayo rice ,OHAYO RICEBAR - STASIUN JUANDA,-6.166,106.83,ohayo ricebar  stasiun juanda,Ohayo Ricebar | Stasiun Juanda,-6.166,106.83,0.0,0.538,0.25,0.95,exact_location_moderate_name
7318,55408,ohlala ,Ohlala - Rsia Grand Family,-6.123,106.739,ohlala  family,OHLALA Grand Family,-6.123,106.739,0.0,0.689,0.5,0.95,exact_location_moderate_name
7328,10662,oldtown white ,OLDTOWN - MTA,-6.179,106.793,oldtown white  taman anggrek,OldTown White Coffee Taman Anggrek,-6.179,106.793,0.0,0.695,0.5,0.95,exact_location_moderate_name
7473,13402,pancake,The Pancake Co. Grand Indonesia,-6.195,106.82,baby dutch pancake  ,Baby Dutch Pancake Grand Indonesia,-6.195,106.82,0.0,0.601,0.333,0.95,exact_location_moderate_name
7463,47445,paiks noodle,PAIKS NOODLE EMPORIUM PLUIT,-6.127,106.791,paiks noodle  pluit  홍콩반점0410,Paiks Noodle Emporium Pluit Mall 홍콩반점0410,-6.127,106.791,0.0,0.685,0.5,0.95,exact_location_moderate_name
7441,20237,padang merdeka,Padang Merdeka - Tebet,-6.225,106.855,padang merdeka tebet,Padang Merdeka Tebet,-6.225,106.855,0.0,0.814,0.667,0.95,exact_location_moderate_name
7440,14667,padang merdeka,Padang Merdeka - Hayam Wuruk,-6.165,106.821,padang merdeka hayam wuruk,Padang Merdeka Hayam Wuruk,-6.165,106.821,0.0,0.71,0.5,0.95,exact_location_moderate_name
7438,20939,padang maharajo,Padang Maharajo - Jagakarsa,-6.339,106.822,maharajo jagakarsa,Maharajo Jagakarsa,-6.339,106.822,0.0,0.279,0.5,0.6,relaxed_wide_net
7405,20324,osteria gia,"Osteria GIA, Pondok Indah Mall 2",-6.267,106.783,osteria gia pondok indah  2,Osteria GIA Pondok Indah Mall 2,-6.267,106.783,0.0,0.638,0.4,0.95,exact_location_moderate_name
7404,14220,osteria gia,"Osteria GIA, Plaza Indonesia",-6.194,106.823,osteria gia  ,Osteria Gia Plaza Indonesia,-6.194,106.823,0.0,1.0,1.0,0.95,exact_location_moderate_name
7402,20129,osteria gia,"Osteria GIA, Pacific Place",-6.225,106.81,osteria gia  pacific place,Osteria Gia Mall Pacific Place,-6.225,106.81,0.0,0.683,0.5,0.95,exact_location_moderate_name
7400,37179,osio,OSIO,-6.166,106.927,osio 오시오,OSIO 오시오,-6.166,106.927,0.0,0.7,0.5,0.95,exact_location_moderate_name
7393,7614,orijicha,Orijicha Taman Palem Lestari,-6.138,106.723,orijicha,Orijicha,-6.138,106.723,0.0,1.0,1.0,0.95,exact_location_moderate_name
7359,49178,onde mande food  pik,"Onde Mande, Food Plaza PIK",-6.104,106.741,wowteg food  pik,WOWTEG FOOD PLAZA PIK,-6.104,106.741,0.0,0.354,0.5,0.6,relaxed_wide_net
7352,31138,omonyo,Omonyo,-6.293,106.814,omonyo  cibis park,Omonyo - Cibis Park,-6.293,106.814,0.0,0.59,0.333,0.95,exact_location_moderate_name
7351,58563,omnivore,Omnivore,-6.152,106.89,omnivore ,Omnivore Kelapa Gading,-6.152,106.89,0.0,1.0,1.0,0.95,exact_location_moderate_name
7337,48561,omari,Omari,-6.152,106.887,omari,Omari,-6.152,106.887,0.0,1.0,1.0,0.95,exact_location_moderate_name
7335,20052,omah sehela,Sehela Kopi Jakarta,-6.306,106.792,sehela ,Sehela Kopi,-6.306,106.792,0.0,0.712,0.5,0.95,exact_location_moderate_name
6985,1875, liwet neng anum,Nasi Liwet Neng Anum - Maja,-6.135,106.703, liwet neng anum  maja,Nasi Liwet Neng Anum - Maja,-6.135,106.703,0.0,0.857,0.75,0.95,exact_location_moderate_name
7507,25423,papo,PAPO 04 TM BINTARO,-6.272,106.758,papo taman bintaro,Papo Taman Bintaro,-6.272,106.758,0.0,0.542,0.333,0.95,exact_location_moderate_name
6943,24427, iskandar,Nasi Iskandar Kemang,-6.275,106.821, iskandar kemang,Nasi isKandar Kemang,-6.275,106.821,0.0,0.709,0.5,0.95,exact_location_moderate_name
6915,63571, goreng,Nasi goreng,-6.117,106.88, goreng dewi,Nasi Goreng Dewi,-6.117,106.88,0.0,0.712,0.5,0.95,exact_location_moderate_name
6576,21949,minang bersaudara,Minang Bersaudara,-6.314,106.804,minang bersaudara  andara,Minang Bersaudara - Andara,-6.314,106.804,0.0,0.815,0.667,0.95,exact_location_moderate_name
8128,13707,ramen ya,Ramen YA! X Sushi YA Gajah Mada,-6.161,106.818,gokana ramen  teppan,Gokana Ramen & Teppan,-6.161,106.818,0.0,0.256,0.0,0.5,second_pass_relaxed
6562,34916,mienta bakmi,Mienta Bakmi - Taman Alfa Jakarta,-6.257,106.781,mienta bakmi  pondok indah,MIeNTA Bakmi - Pondok Indah,-6.257,106.781,0.0,0.695,0.5,0.95,exact_location_moderate_name
6554,54182, pedes aa,Mie Pedes AA Kasir 2,-6.116,106.884, pedes aa    dimsum,Mie Pedes AA (Mie Ayam & Dimsum),-6.116,106.884,0.0,0.775,0.667,0.95,exact_location_moderate_name
8133,15447,ramen ya,Ramen YA! Green Pramuka Square,-6.189,106.874,gokana ramen  teppan green pramuka square,Gokana Ramen & Teppan Green Pramuka square,-6.189,106.874,0.0,0.145,0.0,0.5,second_pass_relaxed
6521,56863, gacoan,1175.TJPGUN,-6.132,106.831, gacoan   gunung sahari,Mie Gacoan Jakarta - Gunung Sahari,-6.132,106.831,0.0,0.572,0.333,0.95,exact_location_moderate_name
8114,62809,ramen ya,Ramen Ya! Mall Sunter,-6.138,106.871,gokana ramen  teppan,Gokana ramen & teppan,-6.138,106.871,0.0,0.256,0.0,0.5,second_pass_relaxed
6519,9730, gacoan,1166.GGPPAN,-6.188,106.768, gacoan   kedoya,Mie Gacoan Jakarta - Kedoya,-6.188,106.768,0.0,0.689,0.5,0.95,exact_location_moderate_name
6495,24001, bandung kejaksaan 1964,MBK1964 Cilandak,-6.292,106.797,mbk 1964  cilandak   bandung kejaksaan 1964 ,MBK 1964 - Cilandak ( Mie Bandung Kejaksaan 1964 ),-6.292,106.797,0.0,0.753,0.6,0.95,exact_location_moderate_name
6485,16157,  lvina,Mie Ayam L'Vina,-6.202,106.844,  lvina,Mie Ayam L'vina,-6.202,106.844,0.0,1.0,1.0,0.95,exact_location_moderate_name
6466,39067,   barokah tole wonogiri,MIE AYAM BAKSO BAROKAH TOLE WONOGIRI,-6.22,106.903,   barokah,Mie Ayam Bakso Barokah,-6.22,106.903,0.0,0.583,0.333,0.95,exact_location_moderate_name
6437,20559,meradelima ,MERADELIMA RESTO,-6.24,106.805,meradelima,Meradelima,-6.24,106.805,0.0,1.0,1.0,0.95,exact_location_moderate_name
6436,58221,meogbang korean bbq,Meogbang Korean BBQ Sunter,-6.144,106.87,meogbang korean bbq,Meogbang Korean BBQ,-6.144,106.87,0.0,1.0,1.0,0.95,exact_location_moderate_name
6434,30553,menya sakura,Menya Sakura Kota Kasablanka,-6.222,106.842,menya sakura  kota kasablanka,Menya Sakura Mall Kota Kasablanka,-6.222,106.842,0.0,0.68,0.5,0.95,exact_location_moderate_name
6499,44768, bandung kejaksaan 1964,MBK1964 Jatiwaringin,-6.255,106.909,mibk 1964  jatiwaringin   bandung kejaksaan 1964 ,MiBK 1964 - Jatiwaringin ( Mie Bandung Kejaksaan 1964 ),-6.255,106.909,0.0,0.737,0.6,0.95,exact_location_moderate_name
8110,26905,ramen sanpachi 38 kemang,Ramen 38 Sanpachi Kemang,-6.256,106.81,saladstop  kemang,Saladstop! - Kemang,-6.256,106.81,0.0,0.23,0.0,0.5,second_pass_relaxed
6782,25647,mr roastman,MR ROASTMAN SARINAH,-6.241,106.799,mr roastman  m bloc,Mr Roastman - M Bloc,-6.241,106.799,0.0,0.728,0.5,0.95,exact_location_moderate_name
6787,12226,mr park living ,MR. PARK-  LIVING PLAZA,-6.189,106.738,mr park living  ,Mr Park Living Plaza Puri,-6.189,106.738,0.0,1.0,1.0,0.95,exact_location_moderate_name
6907,15385,  kumis  sumur batu,Nasi Bebek Kumis - Sumur Batu,-6.166,106.872, bersih berkah sumur batu,"Ayam Bersih Berkah, Sumur Batu",-6.166,106.872,0.0,0.34,0.5,0.6,relaxed_wide_net
6904,2541,  tanjung duren,Nasi Ayam Tanjung Duren,-6.174,106.784,tanjung duren,Tanjung Duren,-6.174,106.784,0.0,1.0,1.0,0.95,exact_location_moderate_name
6900,27446,  ori ampera,NASI AYAM ORI AMPERA,-6.286,106.818,  ori ampera,"Nasi Ayam ORI, Ampera",-6.286,106.818,0.0,1.0,1.0,0.95,exact_location_moderate_name
6892,35608,  ori,NASI AYAM ORI CIPETE,-6.291,106.795,  ori cipete,"Nasi Ayam ORI, Cipete",-6.291,106.795,0.0,0.638,0.5,0.95,exact_location_moderate_name
6887,10420,  ori,Nasi Ayam Ori PALMERAH,-6.201,106.786,  ori palmerah,"Nasi Ayam Ori, Palmerah",-6.201,106.786,0.0,0.62,0.5,0.95,exact_location_moderate_name
6866,614,nasgorin,Nasgorin Taman Surya,-6.132,106.705,nasgorin taman surya,Nasgorin Taman Surya,-6.132,106.705,0.0,0.605,0.333,0.95,exact_location_moderate_name
6847,23514,nasgero,NASGERO SCBD,-6.227,106.807, goreng bang gero nasgero,Nasi Goreng Bang Gero (NASGERO),-6.227,106.807,0.0,0.535,0.25,0.95,exact_location_moderate_name
6845,21316,nasgero,NASGERO CILANDAK,-6.287,106.8,nasgero cilandak  goreng bang gero asli medan nyesssdimulut,"Nasgero, Cilandak (Nasi Goreng Bang Gero Asli Medan) #NyesssDimulut",-6.287,106.8,0.0,0.415,0.125,0.85,close_contains_match
6832,360,nam heong,Nam Heong Mall Of Indonesia,-6.19,106.739,nam heong   ,Nam Heong Lippo Mall Puri,-6.19,106.739,0.0,1.0,1.0,0.95,exact_location_moderate_name
6825,31398,nainai hot pot,NaiNai Hot Pot,-6.281,106.82,nainai hot pot,NaiNai Hot Pot,-6.281,106.82,0.0,1.0,1.0,0.95,exact_location_moderate_name
6821,50720,nagasaki,Nagasaki Bento,-6.117,106.858,nagasaki bento,Nagasaki Bento,-6.117,106.858,0.0,0.718,0.5,0.95,exact_location_moderate_name
6809,24107,my  o,MY KOPI-O! CILANDAK TOWN SQUARE,-6.292,106.8,my  o  citos,My Kopi O! - Citos,-6.292,106.8,0.0,0.738,0.667,0.95,exact_location_moderate_name
8018,34937, sodexo  jis,SODEXO,-6.284,106.789,sate madura jis,Sate Madura JIS,-6.284,106.789,0.0,0.244,0.0,0.5,second_pass_relaxed
6794,20364,muhi   ,MUHI. PONDOK INDAH,-6.267,106.769,muhi   ,MUHI. Eatery & Coffee,-6.267,106.769,0.0,1.0,1.0,0.95,exact_location_moderate_name
6922,21886, goreng bapalo,NASI GORENG BAPALO POLTANGAN,-6.3,106.849, goreng bapalo  jagakarsa,NASI GORENG BAPALO - JAGAKARSA,-6.3,106.849,0.0,0.783,0.667,0.95,exact_location_moderate_name
6424,1476,menoo,MENOO,-6.219,106.755,menoo  joglo,MENOO - JOGLO,-6.219,106.755,0.0,0.688,0.5,0.95,exact_location_moderate_name
7510,47479,pappa jack,PAPPA JACK,-6.118,106.857,pappa jack,Pappa Jack,-6.118,106.857,0.0,1.0,1.0,0.95,exact_location_moderate_name
7520,47042,paradise dynasty,Paradise Dynasty Central Market PIK,-6.091,106.746,paradise dynasty pik,Paradise Dynasty PIK,-6.091,106.746,0.0,0.833,0.667,0.95,exact_location_moderate_name
8092,9068,raja minang,Raja Minang,-6.165,106.779, padang raja minang,Nasi Padang Raja Minang,-6.165,106.779,0.0,0.794,0.667,0.95,exact_location_moderate_name
8082,43472,raffels sandwich,Raffel's Sandwich Kalimalang,-6.247,106.909,raffels sandwich kalimalang,Raffel's Sandwich Kalimalang,-6.247,106.909,0.0,0.79,0.667,0.95,exact_location_moderate_name
8078,20606,raffels sandwich,Raffel's Sandwich Pondok Indah Mal 2,-6.266,106.783,raffels sandwich pondok indah  2,Raffel's Sandwich Pondok Indah Mall 2,-6.266,106.783,0.0,0.664,0.4,0.95,exact_location_moderate_name
8077,72,raffels sandwich,Raffel's Sandwich Citra Garden 8,-6.122,106.696,raffels sandwich citra garden 8,Raffel's Sandwich Citra Garden 8,-6.122,106.696,0.0,0.664,0.4,0.95,exact_location_moderate_name
7082,13519,neo 88,NEO 88,-6.155,106.849,bakmi harum 88 mgk kemayoran,BAKMI HARUM 88 MGK KEMAYORAN,-6.155,106.849,0.0,0.12,0.0,0.5,second_pass_relaxed
8005,4196,psy steamboat yakiniku,PSY STEAMBOAT YAKINIKU KEBON JERUK,-6.21,106.771,psy steamboat yakiniku kebon jeruk,PSY Steamboat Yakiniku Kebon Jeruk,-6.21,106.771,0.0,0.776,0.6,0.95,exact_location_moderate_name
8100,20187,ramen for the soul,Ramen For The Soul,-6.239,106.808,ramen for the soul wolter monginsidi,Ramen For The Soul (Wolter Monginsidi),-6.239,106.808,0.0,0.767,0.667,0.95,exact_location_moderate_name
7986,20526,pot boy aru,POT BOY ARU,-6.245,106.798,pot boy aru,Pot Boy Aru,-6.245,106.798,0.0,1.0,1.0,0.95,exact_location_moderate_name
7929,18609,pondok rangi,Pondok Rangi Rawasari,-6.188,106.864,pondok rangi    rawasari,PONDOK RANGI RESTO & COFFEE RAWASARI,-6.188,106.864,0.0,0.785,0.667,0.95,exact_location_moderate_name
7922,38697,pokpok my crispy snack,Pokpok My Crispy Snack - Mall Bassura,-6.224,106.878,pok pok crispy snack,Pok Pok Crispy Snack,-6.224,106.878,0.0,0.403,0.5,0.6,relaxed_wide_net
7915,23716,pochajjang,Pochajjang Tebet,-6.229,106.856,pochajjang tebet,POCHAJJANG Tebet,-6.229,106.856,0.0,0.731,0.5,0.95,exact_location_moderate_name
7116,1904,nian pio arang palem,Nian pio arang palem ,-6.13,106.716,sate taichan nyotnyot taman palem,Sate Taichan Nyot-Nyot Taman Palem,-6.13,106.716,0.0,0.22,0.0,0.5,second_pass_relaxed
7888,62849,pizza marzano,PM SUNTER MALL,-6.138,106.868,dominos pizza,Domino's Pizza,-6.138,106.868,0.0,0.249,0.5,0.6,relaxed_wide_net
7134,47424,nix ktv pik,NIX KTV PIK,-6.123,106.741,bakmi bintang gading pik,Bakmi Bintang Gading PIK,-6.123,106.741,0.0,0.17,0.0,0.5,second_pass_relaxed
7930,788,pondok rangi,Pondok Rangi Taman Ratu,-6.17,106.769,pondok rangi taman ratu,Pondok Rangi Taman Ratu,-6.17,106.769,0.0,0.706,0.5,0.95,exact_location_moderate_name
8103,1421,ramen level up,Ramen Level Up - Meruya,-6.211,106.738,ramen level up meruya,Ramen Level Up Meruya,-6.211,106.738,0.0,0.84,0.75,0.95,exact_location_moderate_name
8126,61009,ramen ya,Ramen Ya X Sushi Ya Emporium ,-6.127,106.791,ramen ya  pluit,Ramen YA! Emporium Pluit,-6.127,106.791,0.0,0.785,0.667,0.95,exact_location_moderate_name
8134,7294,ramen ya,Ramen Ya Green Sedayu Mall,-6.139,106.729,ramen ten ten,Ramen Ten Ten,-6.139,106.729,0.0,0.305,0.5,0.6,relaxed_wide_net
8510,19055,remboelan,Remboelan Grand Indonesia,-6.195,106.821,remboelan   ,Remboelan - Grand Indonesia,-6.195,106.821,0.0,1.0,1.0,0.95,exact_location_moderate_name
8509,20418,remboelan,Remboelan Gandaria City,-6.245,106.784,remboelan  gandaria city,Remboelan - Gandaria City,-6.245,106.784,0.0,0.602,0.333,0.95,exact_location_moderate_name
8508,24000,remboelan,Remboelan Cilandak Town Square,-6.291,106.8,remboelan citos,Remboelan Citos,-6.291,106.8,0.0,0.725,0.5,0.95,exact_location_moderate_name
8507,11240,remboelan,Remboelan Central Park,-6.177,106.791,remboelan,REMBOELAN,-6.177,106.791,0.0,1.0,1.0,0.95,exact_location_moderate_name
8332,18207,reddog,REDDOG SUMUR BATU,-6.161,106.867,reddog sumur batu kemayoran,Reddog Sumur Batu Kemayoran,-6.161,106.867,0.0,0.509,0.25,0.95,exact_location_moderate_name
6961,42814, kepal nusantara  condet,Nasi Kepal Nusantara - Condet,-6.276,106.861,et veteran pizza condet,Et Veteran Pizza Condet,-6.276,106.861,0.0,0.227,0.0,0.5,second_pass_relaxed
8323,20610,reddog,REDDOG PONDOK INDAH MALL 1,-6.266,106.785,reddog pondok indah  1,Reddog Pondok Indah Mall 1,-6.266,106.785,0.0,0.533,0.25,0.95,exact_location_moderate_name
8314,44353,reddog,REDDOG CITY PLAZA JATINEGARA,-6.214,106.864,reddog city  jatinegara,REDDOG City Plaza Jatinegara,-6.214,106.864,0.0,0.562,0.333,0.95,exact_location_moderate_name
8304,34102,reddog,REDDOG KEBAYORAN PARK MALL,-6.238,106.764,reddog  kebayoran park,Reddog - Kebayoran Park,-6.238,106.764,0.0,0.567,0.333,0.95,exact_location_moderate_name
8303,1102,reddog,REDDOG PURI INDAH MALL,-6.189,106.733,reddog   indah ,Reddog - Puri Indah mall,-6.189,106.733,0.0,0.7,0.5,0.95,exact_location_moderate_name
8299,55851,reddog,REDDOG EMPORIUM,-6.127,106.791,reddog   ,Reddog - Emporium Mall,-6.127,106.791,0.0,1.0,1.0,0.95,exact_location_moderate_name
8255,10784,rejuve,Re.juve RS Harapan Kita,-6.185,106.798,rejuve rsab harapan kita,Rejuve RSAB Harapan Kita,-6.185,106.798,0.0,0.52,0.25,0.95,exact_location_moderate_name
8166,20373,rantang ,Rantang Restaurant,-6.296,106.799,rantang ,Rantang Restaurant,-6.296,106.799,0.0,1.0,1.0,0.95,exact_location_moderate_name
7019,18442, uduk  pecel plus,Nasi uduk & pecel plus,-6.17,106.87, uduk dan  kuning mba sri,Nasi uduk dan nasi kuning mba sri,-6.17,106.87,0.0,0.183,0.0,0.5,second_pass_relaxed
8153,23652,ramerame ramen,RAMERAME R,-6.222,106.833,ramerame ramen  festival,RameRame Ramen Plaza Festival,-6.222,106.833,0.0,0.794,0.667,0.95,exact_location_moderate_name
7886,1136,pizza marzano,PM LIPPO MALL PURI,-6.188,106.739,eat pizza    ,Eat Pizza - Lippo Mall Puri,-6.188,106.739,0.0,0.27,0.5,0.6,relaxed_wide_net
7515,2546,paradise dynasty,Paradise Dynasty Central Park,-6.176,106.791,paradise dynasty  central park,Paradise Dynasty - Central Park,-6.176,106.791,0.0,0.713,0.5,0.95,exact_location_moderate_name
7264,52134,ohana bbq 2,Ohana Bbq 2,-6.103,106.741,mitarik laiker pantjoran pik 2,Mitarik Laiker Pantjoran PIK 2,-6.103,106.741,0.0,0.145,0.0,0.5,second_pass_relaxed
7839,29962,pizza boxx,PIZZA BOXX LENTENG AGUNG,-6.318,106.837,pizza boxx,Pizza boxx,-6.318,106.837,0.0,1.0,1.0,0.95,exact_location_moderate_name
7661,18552,penyetan cok,^JAKARTA GREEN PRAMUKA SQUARE,-6.19,106.874,penyetan cok green pramuka square,Penyetan Cok Green Pramuka Square,-6.19,106.874,0.0,0.62,0.4,0.95,exact_location_moderate_name
7654,32111,penyetan cok,PENCOK PEJATEN ,-6.28,106.829,penyetan cok  the park pejaten,Penyetan Cok - The Park Pejaten,-6.28,106.829,0.0,0.636,0.4,0.95,exact_location_moderate_name
7653,40445,penyetan cok,PENCOK KRAMAT JATI,-6.271,106.869,penyetan cok kramat jati,"Penyetan Cok, Kramat Jati",-6.271,106.869,0.0,0.7,0.5,0.95,exact_location_moderate_name
7635,13815,penyetan cok,^JAKARTA PLAZA ATRIUM SENEN,-6.177,106.841,penyeton cok,Penyeton Cok,-6.177,106.841,0.0,0.408,0.5,0.6,relaxed_wide_net
7624,1369,penang ,Penang Restaurant Puri,-6.185,106.736,penang  ,Penang Restaurant Puri,-6.185,106.736,0.0,1.0,1.0,0.95,exact_location_moderate_name
7622,38982,pempek zerin,Pempek Zerin - Cipinang,-6.222,106.886,pempek zerin  cipinang jaya,Pempek Zerin - Cipinang Jaya,-6.222,106.886,0.0,0.689,0.5,0.95,exact_location_moderate_name
7698,58599,pepper lunch,Pepper Lunch Artha Gading,-6.146,106.892,pepper lunch   artha gading,Pepper Lunch - Mall Artha Gading,-6.146,106.892,0.0,0.695,0.5,0.95,exact_location_moderate_name
7608,16156,pempek megaria,Pempek Megaria Pegangsaan,-6.2,106.844,pempek megaria,Pempek Megaria,-6.2,106.844,0.0,1.0,1.0,0.95,exact_location_moderate_name
7580,542,pearl dimsum,Pearl Dimsum,-6.151,106.714,pearl dimsum daan mogot,Pearl Dimsum Daan Mogot,-6.151,106.714,0.0,0.706,0.5,0.95,exact_location_moderate_name
7573,53593,pawon bule,Pawon Bule,-6.135,106.868,pawon bule,Pawon Bule,-6.135,106.868,0.0,1.0,1.0,0.95,exact_location_moderate_name
7558,14353,paul,PAUL PLAZA INDONESIA,-6.226,106.799,paul   senayan,PAUL Bakery Plaza Senayan,-6.226,106.799,0.0,0.65,0.5,0.95,exact_location_moderate_name
7555,25237,pattypals,PattyPals,-6.252,106.798,pattypals,Pattypals,-6.252,106.798,0.0,1.0,1.0,0.95,exact_location_moderate_name
7541,21550,paris sorbet,Paris Sorbet Blok M,-6.245,106.798,paris sorbet,Paris Sorbet,-6.245,106.798,0.0,1.0,1.0,0.95,exact_location_moderate_name
7538,19227,paris ,Paris Bistro,-6.217,106.815,paris ,Paris Bistro,-6.217,106.815,0.0,1.0,1.0,0.95,exact_location_moderate_name
7583,22772,pecel lele dobleng 99,Pecel Lele Dobleng 99,-6.337,106.81,pecel lele,pecel lele,-6.337,106.81,0.0,0.694,0.5,0.95,exact_location_moderate_name
7701,211,pepper lunch,Pepper Lunch Central Park,-6.178,106.79,pepper lunch  central park,Pepper Lunch - Central Park,-6.178,106.79,0.0,0.695,0.5,0.95,exact_location_moderate_name
7702,24101,pepper lunch,Pepper Lunch Cilandak Town Square,-6.292,106.8,pepper lunch cilandak town square,Pepper Lunch Cilandak Town Square,-6.292,106.8,0.0,0.62,0.4,0.95,exact_location_moderate_name
7708,14248,pepper lunch,Pepper Lunch Grand Indonesia,-6.195,106.82,pepper lunch  ,Pepper Lunch Grand Indonesia,-6.195,106.82,0.0,1.0,1.0,0.95,exact_location_moderate_name
7833,27705,pizza boxx,PIZZA BOXX KAHFI SRENGSENG SAWAH,-6.356,106.81,pizza boxx,Pizza Boxx,-6.356,106.81,0.0,1.0,1.0,0.95,exact_location_moderate_name
7829,21669,pison pondok indah,Pison Pondok Indah Online,-6.284,106.79,pison pondok indah,Pison Pondok Indah,-6.284,106.79,0.0,1.0,1.0,0.95,exact_location_moderate_name
7824,39785,pisang rajo,Pisang Rajo Rawamangun,-6.198,106.892,pisang nugget rajo,PISANG NUGGET RAJO,-6.198,106.892,0.0,0.494,0.667,0.75,token_overlap_close
7801,19143,pisang madu pasti,PISANG MADU PASTI - BENHILL,-6.207,106.811,pisang madu pasti,Pisang Madu Pasti,-6.207,106.811,0.0,1.0,1.0,0.95,exact_location_moderate_name
7766,6,pigcasso,Pigcasso Puri Kembangan,-6.184,106.753,pigcasso  kembangan,Pigcasso Puri Kembangan,-6.184,106.753,0.0,0.685,0.5,0.95,exact_location_moderate_name
7734,51676,pertamilk  nias,Pertamilk Kelapa Gading Nias,-6.154,106.917,  gading nias,Soto Mie Gading Nias,-6.154,106.917,0.0,0.301,0.5,0.6,relaxed_wide_net
7730,30483,pepr,PEPR.,-6.222,106.791,pepr,PEPR.,-6.222,106.791,0.0,1.0,1.0,0.95,exact_location_moderate_name
7727,14226,pepper lunch,Pepper Lunch Plaza Atrium Senen,-6.177,106.841,pepper lunch millenium  ,Pepper Lunch Millenium Mall Jakarta,-6.177,106.841,0.0,0.778,0.667,0.95,exact_location_moderate_name
7726,21465,pepper lunch,Pepper Lunch Aeon Tanjung Barat,-6.306,106.84,pepper lunch  æon  tanjung barat,Pepper Lunch - ÆON Mall Tanjung Barat,-6.306,106.84,0.0,0.631,0.4,0.95,exact_location_moderate_name
7724,4493,pepper lunch,Pepper Lunch Taman Anggrek,-6.179,106.793,pepper lunch  taman anggrek,Pepper Lunch Mall Taman Anggrek,-6.179,106.793,0.0,0.689,0.5,0.95,exact_location_moderate_name
7720,14343,pepper lunch,Pepper Lunch Plaza Senayan,-6.225,106.799,pepper lunch   senayan,Pepper Lunch - Plaza Senayan,-6.225,106.799,0.0,0.792,0.667,0.95,exact_location_moderate_name
7714,20331,pepper lunch,Pepper Lunch PIM3,-6.266,106.785,pepper lunch express pondok indah  1,Pepper Lunch Express Pondok Indah Mall 1.,-6.266,106.785,0.0,0.587,0.333,0.95,exact_location_moderate_name
7713,47244,pepper lunch,Pepper Lunch Mall Of Indonesia,-6.151,106.892,pepper lunch express  of ,Pepper Lunch Express Mall Of Indonesia,-6.151,106.892,0.0,0.706,0.5,0.95,exact_location_moderate_name
7711,34766,pepper lunch,Pepper Lunch Lippo Kemang,-6.261,106.812,pepper lunch,Pepper Lunch,-6.261,106.812,0.0,1.0,1.0,0.95,exact_location_moderate_name
7710,30635,pepper lunch,Pepper Lunch Kota Kasablanka,-6.223,106.843,pepper lunch  kota kasablanka,Pepper Lunch - Kota Kasablanka,-6.223,106.843,0.0,0.68,0.5,0.95,exact_location_moderate_name
7855,20390,pizza e birra,"Pizza E Birra, Cilandak Town Square",-6.292,106.8,pizza e birra sports  cilandak town square,Pizza e Birra Sports Bar Cilandak Town Square,-6.292,106.8,0.0,0.616,0.429,0.95,exact_location_moderate_name
8514,47051,remboelan,Remboelan Mall Kelapa Gading,-6.157,106.91,remboelan  ,Remboelan - Kelapa Gading,-6.157,106.91,0.0,1.0,1.0,0.95,exact_location_moderate_name
6406,51764,meaters,MEATERS PANTAI INDAH KAPUK,-6.124,106.741,meaters steak  ribs specialist,Meaters Steak & Ribs Specialist,-6.124,106.741,0.0,0.517,0.25,0.95,exact_location_moderate_name
6385,55077,maudon,MAUDON KELAPA GADING,-6.163,106.913,maudon  ,MAUDON - Kelapa Gading,-6.163,106.913,0.0,1.0,1.0,0.95,exact_location_moderate_name
5068,194,kimukatsu,Kimukatsu Central Park,-6.178,106.79,kimukatsu central park ,Kimukatsu Central Park Jakarta,-6.178,106.79,0.0,0.608,0.333,0.95,exact_location_moderate_name
5013,3335,kenyang kita,Kenyang Kita,-6.171,106.746,kenyang kita,Kenyang Kita,-6.171,106.746,0.0,1.0,1.0,0.95,exact_location_moderate_name
4990,32183, susu siaga,Kedai Susu Siaga,-6.276,106.841, siaga,Warung Siaga,-6.276,106.841,0.0,0.7,0.5,0.95,exact_location_moderate_name
4985,18718, steak nusantara,KEDAI STEAK NUSANTARA - MENTENG MATRAMAN,-6.192,106.848, steak nusantara menteng matraman,Kedai Steak Nusantara Menteng Matraman,-6.192,106.848,0.0,0.691,0.5,0.95,exact_location_moderate_name
4980,14320, sesama,Kedai Sesama,-6.192,106.843, sesama  cikini,Kedai Sesama - Cikini,-6.192,106.843,0.0,0.689,0.5,0.95,exact_location_moderate_name
4955,21503,  tjap 1000 tahun,Kedai Mie Tjap 1000 Tahun,-6.269,106.815,  tjap 1000 tahun lcc kemang,"Kedai Mie Tjap 1000 Tahun, LCC Kemang",-6.269,106.815,0.0,0.76,0.6,0.95,exact_location_moderate_name
5072,20400,kimukatsu,Kimukatsu Gandaria City,-6.244,106.784,kimukatsu gandaria city,Kimukatsu Gandaria City,-6.244,106.784,0.0,0.602,0.333,0.95,exact_location_moderate_name
4949,16143, limma,Kedai Limma Pos Bloc Jakarta,-6.167,106.834, limma pos bloc,Kedai Limma Pos Bloc,-6.167,106.834,0.0,0.591,0.333,0.95,exact_location_moderate_name
4947,20265, kumala,Kedai Kumala Bellezza,-6.222,106.783, kumala,Kedai Kumala,-6.222,106.783,0.0,1.0,1.0,0.95,exact_location_moderate_name
4892,33358,kebuli abuya,KEBULI ABUYA TANJUNG BARAT,-6.296,106.843,kebuli abuya,Kebuli Abuya,-6.296,106.843,0.0,1.0,1.0,0.95,exact_location_moderate_name
4889,3971,kebuli abuya,KEBULI ABUYA KOSAMBI CENGKARENG,-6.176,106.722,kebuli abuya kosambi cengkareng,Kebuli Abuya Kosambi Cengkareng,-6.176,106.722,0.0,0.667,0.5,0.95,exact_location_moderate_name
4886,58640,kebuli abuya,KEBULI ABUYA ROROTAN,-6.14,106.955,kebuli abuya rorotan,Kebuli Abuya Rorotan,-6.14,106.955,0.0,0.792,0.667,0.95,exact_location_moderate_name
4879,31963,kebuli abuya, KEBULI ABUYA AMPERA,-6.286,106.819,kebuli abuya ampera,Kebuli Abuya Ampera,-6.286,106.819,0.0,0.799,0.667,0.95,exact_location_moderate_name
4863,22061,kebab monster,Kebab Monster Super Bangka,-6.251,106.814,kebab monster super bangka,Kebab Monster Super Bangka,-6.251,106.814,0.0,0.7,0.5,0.95,exact_location_moderate_name
4948,15870, kumala,Kedai Kumala Thamrin,-6.199,106.822, kumala  chubb square,Kedai kumala | Chubb Square,-6.199,106.822,0.0,0.577,0.333,0.95,exact_location_moderate_name
5073,13393,kimukatsu,Kimukatsu Grand Indonesia,-6.195,106.821,kimukatsu  ,Kimukatsu Grand Indonesia,-6.195,106.821,0.0,1.0,1.0,0.95,exact_location_moderate_name
5076,20031,kimukatsu,Kimukatsu Lippo Kemang,-6.261,106.813,kimukatsu   kemang,Kimukatsu Lippo Mall Kemang,-6.261,106.813,0.0,0.716,0.5,0.95,exact_location_moderate_name
5080,47028,kimukatsu,Kimukatsu PIK Avenue,-6.109,106.74,kimukatsu pik avenue,Kimukatsu PIK Avenue,-6.109,106.74,0.0,0.62,0.333,0.95,exact_location_moderate_name
5229,38079,komuka,Komuka,-6.181,106.97,komuka      kafe cakung  metland menteng  jgc  asya  harapan indah  pulo gebang,KOMUKA | Cafe & Eatery | Kafe Cakung | Metland Menteng | JGC | ASYA | Harapan Indah | Pulo Gebang,-6.181,106.97,0.0,0.384,0.091,0.85,close_contains_match
5217,55779,koko hawker,Koko Hawker - Emporium,-6.127,106.791,koko hawker   pluit,Koko Hawker + Emporium Pluit,-6.127,106.791,0.0,0.802,0.667,0.95,exact_location_moderate_name
5212,290,koka ramen express,Koka Ramen Express Binus,-6.201,106.785,koka ramen express,Koka Ramen Express,-6.201,106.785,0.0,1.0,1.0,0.95,exact_location_moderate_name
5209,58579,koi teppanyaki,KOI TEPPANYAKI MAG,-6.146,106.892,koi teppanyaki,Koi Teppanyaki,-6.146,106.892,0.0,1.0,1.0,0.95,exact_location_moderate_name
5200,25223,koi teppanyaki,KOI TEPPANYAKI FATMAWATI,-6.264,106.799,koi teppanyaki itc fatmawati,Koi Teppanyaki ITC Fatmawati,-6.264,106.799,0.0,0.7,0.5,0.95,exact_location_moderate_name
5194,20239,kohai izakaya,KOHAI SUSHI BAR,-6.229,106.823,kohai sushi ,Kohai Sushi Bar,-6.229,106.823,0.0,0.308,0.5,0.6,relaxed_wide_net
5185,12115,kodaigiri,Kodaigiri Kemanggisan,-6.201,106.782,kodaigiri,Kodaigiri,-6.201,106.782,0.0,1.0,1.0,0.95,exact_location_moderate_name
5174,47789,kochikochi drinks sushi,Kochikochi Sunter,-6.151,106.879,kochikochi drinks  sushi sunter,"Kochikochi Drinks & Sushi, Sunter",-6.151,106.879,0.0,0.86,0.75,0.95,exact_location_moderate_name
5132,3663,kiyo japanese curry,Kiyo Japanese Curry - PHX Grogol,-6.166,106.792,kiyo japanese curry,Kiyo Japanese Curry,-6.166,106.792,0.0,1.0,1.0,0.95,exact_location_moderate_name
5121,20001,kitchenette,"Kitchenette, Kemang Village",-6.262,106.813,kitchenette   kemang,Kitchenette Lippo Mall Kemang,-6.262,106.813,0.0,0.728,0.5,0.95,exact_location_moderate_name
5120,32475,kitchenette,"Kitchenette, Gandaria City",-6.245,106.784,kitchenette  gandaria city,Kitchenette - Gandaria City,-6.245,106.784,0.0,0.617,0.333,0.95,exact_location_moderate_name
5089,4037,kindee ,Kindee Cafe,-6.19,106.753,kindee thai   ,Kindee Thai Resto & Cafe,-6.19,106.753,0.0,0.712,0.5,0.95,exact_location_moderate_name
5087,27215,kimukatsu,Kimukatsu The Park Pejaten,-6.28,106.829,kimukatsu the park pejaten,Kimukatsu The Park Pejaten,-6.28,106.829,0.0,0.554,0.25,0.95,exact_location_moderate_name
5082,19303,kimukatsu,Kimukatsu Senayan Park,-6.213,106.804,kimukatsu senayan park,Kimukatsu Senayan Park,-6.213,106.804,0.0,0.608,0.333,0.95,exact_location_moderate_name
5081,23537,kimukatsu,Kimukatsu Pacific Place,-6.225,106.81,kimukatsu pacific place,Kimukatsu Pacific Place,-6.225,106.81,0.0,0.602,0.333,0.95,exact_location_moderate_name
4857,40907,kebab monster,Kebab Monster Ciracas,-6.33,106.876,kebab monster ciracas,Kebab Monster Ciracas,-6.33,106.876,0.0,0.796,0.667,0.95,exact_location_moderate_name
5395,32345, kalyan,Kalyan - Event 3,-6.249,106.804,kopikalyan wijaya,Kopikalyan Wijaya,-6.249,106.804,0.0,0.457,0.0,0.85,close_contains_match
4855,59144,kebab monster,Kebab Monster Swasembada Barat,-6.124,106.889,kebab monster swasembada barat,Kebab Monster Swasembada Barat,-6.124,106.889,0.0,0.681,0.5,0.95,exact_location_moderate_name
4850,32030,kebab monster,Kebab Monster Unas,-6.28,106.839,kebab monster jatipadang 2,Kebab Monster Jatipadang 2,-6.28,106.839,0.0,0.7,0.5,0.95,exact_location_moderate_name
4560,20123,jack  joe ,JACK & JOE COFFEE,-6.311,106.781,jack  joe ,Jack & Joe Restaurant,-6.311,106.781,0.0,1.0,1.0,0.95,exact_location_moderate_name
4557,20567,izokaya,IZOKAYA,-6.245,106.8,izokaya,Izokaya,-6.245,106.8,0.0,1.0,1.0,0.95,exact_location_moderate_name
4546,33921,istanbul kebab pondok pinang,Istanbul Kebab Pondok Pinang,-6.265,106.775,istanbul kebab pondok pinang,Istanbul Kebab Pondok Pinang,-6.265,106.775,0.0,1.0,1.0,0.95,exact_location_moderate_name
4488,1009,ishigamaya,ISHIGAMAYA Central Park,-6.176,106.79,ishigamaya hamburg  steak central park,ISHIGAMAYA HAMBURG & STEAK Central Park,-6.176,106.79,0.0,0.508,0.2,0.95,exact_location_moderate_name
9060,61713,sate taichan nyotnyot,Sate Taichan Nyot Nyot Pademangan,-6.14,106.842,sate babi akhim,Sate Babi Akhim,-6.14,106.842,0.0,0.213,0.0,0.5,second_pass_relaxed
4453,23690,il forno pizzeria,Lokale Kitchen,-6.227,106.851,il forno pizzeria  italian pizza tebet,"Il Forno Pizzeria - Italian Pizza, Tebet",-6.227,106.851,0.0,0.689,0.5,0.95,exact_location_moderate_name
4608,10453,janji kenyang,Janji Kenyang,-6.2,106.784,janji kenyang,Janji Kenyang,-6.2,106.784,0.0,1.0,1.0,0.95,exact_location_moderate_name
4441,47202,ikkudo ichi,IKKUDO ICHI - MAG,-6.157,106.909,ikkudo ichi,Ikkudo Ichi,-6.157,106.909,0.0,1.0,1.0,0.95,exact_location_moderate_name
4416,38739,ichiban sushi,IS-Cibubur Junction,-6.369,106.894,ichiban sushi  cibubur junction,Ichiban Sushi - Cibubur Junction,-6.369,106.894,0.0,0.681,0.5,0.95,exact_location_moderate_name
4414,23696,ichiban sushi,IS-Kota Kasablanka,-6.224,106.843,ichiban sushi  kota kasablanka,Ichiban Sushi - Kota Kasablanka,-6.224,106.843,0.0,0.686,0.5,0.95,exact_location_moderate_name
4413,48328,ichiban sushi,IS-Sunter Mall,-6.138,106.871,ichiban sushi  sunter ,Ichiban Sushi - Sunter Mall,-6.138,106.871,0.0,0.803,0.667,0.95,exact_location_moderate_name
9063,48724,sate taichan nyotnyot,Sate Taichan Nyot Nyot Muara Karang,-6.117,106.78,wilan sate babi dan bakut,Wilan Sate Babi dan Bakut,-6.117,106.78,0.0,0.201,0.0,0.5,second_pass_relaxed
4407,7343,ichiban sushi,IS-Green Sedayu Palem,-6.139,106.729,ichiban sushi  green sedayu ,Ichiban Sushi - Green Sedayu Mall,-6.139,106.729,0.0,0.7,0.5,0.95,exact_location_moderate_name
9067,55146,sate taichan nyotnyot,Sate Taichan Nyot Nyot Kelapang Gading,-6.165,106.913,jajanan sate jasat ,JAJANAN SATE (JASAT) KELAPA GADING,-6.165,106.913,0.0,0.172,0.0,0.5,second_pass_relaxed
4434,14491, bakar cianjur,02. Ikan Bakar Cianjur - Batu Tulis,-6.163,106.825, bakar cianjur  batu tulis,Ikan Bakar Cianjur - Batu Tulis,-6.163,106.825,0.0,0.711,0.5,0.95,exact_location_moderate_name
4613,46492,janjpwang,JJPWG Kayumanis,-6.199,106.862,janjpwang kayumanis karaage bakar  goreng ny maimun ngedimsum,"JANJPWANG Kayumanis (Karaage Bakar, Ayam Goreng Ny Maimun, Ngedimsum)",-6.199,106.862,0.0,0.428,0.125,0.85,close_contains_match
4614,43768,janjpwang,JJPWG Utan Kayu,-6.208,106.872, janjpwang utan kayu,"Kedai JANJPWANG, Utan Kayu",-6.208,106.872,0.0,0.626,0.333,0.95,exact_location_moderate_name
4621,33229,jatinangor house,Jatinangor House - Kemang,-6.266,106.81,jatinangor house kemang,Jatinangor House Kemang,-6.266,106.81,0.0,0.813,0.667,0.95,exact_location_moderate_name
4837,12197,kawara yakiniku,KAWARA YAKINIKU - LIPPO MALL PURI,-6.19,106.739,yakiniku like   ,Yakiniku Like Lippo Mall Puri,-6.19,106.739,0.0,0.305,0.5,0.6,relaxed_wide_net
4829,21178,kataramen event,KataRamen Event,-6.229,106.856,kataramen tebet,Kataramen Tebet,-6.229,106.856,0.0,0.393,0.5,0.6,relaxed_wide_net
9050,37576,sate ponorogo hsakha,Sate Ponorogo H Sakha (Cakung),-6.186,106.954,sate ponorogo h sakha  cakung,Sate Ponorogo H. Sakha - Cakung,-6.186,106.954,0.0,0.383,0.0,0.5,second_pass_relaxed
4763,20729,kalibata house 21 rostery,Kalibata House 21 Rostery,-6.26,106.842,kalibata house 21,Kalibata House 21,-6.26,106.842,0.0,0.843,0.75,0.95,exact_location_moderate_name
4742,2270,kafe pandawa lima,Kafe Pandawa Lima,-6.167,106.766,kafe pandawa lima,Kafe Pandawa Lima,-6.167,106.766,0.0,1.0,1.0,0.95,exact_location_moderate_name
4726,46850,jx hometown pulomas,JX Hometown Pulomas,-6.18,106.892,jx hometown pulomas,JX Hometown Pulomas,-6.18,106.892,0.0,1.0,1.0,0.95,exact_location_moderate_name
4722,48920,just creamy,SuperShiok,-6.142,106.855,just creamy x tarttale,Just Creamy x TARTTALE,-6.142,106.855,0.0,0.7,0.5,0.95,exact_location_moderate_name
4688,27450,jonkira,JONKIRA RAMEN TEBET,-6.238,106.857,jonkira tebet,Jonkira Tebet,-6.238,106.857,0.0,0.71,0.5,0.95,exact_location_moderate_name
4682,41877,jom  uduk,JOM NASI UDUK,-6.313,106.861,jom  uduk,JOM! NASI UDUK,-6.313,106.861,0.0,1.0,1.0,0.95,exact_location_moderate_name
4669,20242,jittlada,Jittlada - Kokas,-6.224,106.842,jittlada thai cuisine kota kasablanka,"Jittlada Thai Cuisine, Kota Kasablanka",-6.224,106.842,0.0,0.487,0.2,0.85,close_contains_match
4642,36311,jatinangor house,Jatinangor House - Tebet Barat,-6.242,106.853,jatinangor house  tebet barat,Jatinangor House - Tebet Barat,-6.242,106.853,0.0,0.718,0.5,0.95,exact_location_moderate_name
4623,26730,jatinangor house,Jatinangor House Blok M,-6.244,106.8,jatinangor house  hub,Jatinangor House Blok M Hub,-6.244,106.8,0.0,0.833,0.667,0.95,exact_location_moderate_name
4622,39879,jatinangor house,Jatinangor House - Rawamangun,-6.203,106.897,jatinangor house rawamangun,Jatinangor House Rawamangun,-6.203,106.897,0.0,0.79,0.667,0.95,exact_location_moderate_name
4853,52326,kebab monster,Kebab Monster Koja,-6.116,106.911,kebab gils,Kebab gils,-6.116,106.911,0.0,0.316,0.5,0.6,relaxed_wide_net
6386,4471,maudon,MAUDON TANJUNG DUREN,-6.181,106.786,maudon  tanjung duren,Maudon - Tanjung Duren,-6.181,106.786,0.0,0.572,0.333,0.95,exact_location_moderate_name
5456,22137, mampang,KOPI MAMPANG,-6.252,106.828, mampang 15,Bakso Mampang 15,-6.252,106.828,0.0,0.747,0.5,0.95,exact_location_moderate_name
5504,35745, tengah,In The Middle,-6.304,106.782,dkriuk karang tengah,Dkriuk karang tengah,-6.304,106.782,0.0,0.572,0.333,0.95,exact_location_moderate_name
6296,43598,martabak pizza orins,MPO-120 Bassura,-6.223,106.881,martabak pizza orins bassura,Martabak Pizza Orins Bassura,-6.223,106.881,0.0,0.85,0.75,0.95,exact_location_moderate_name
8780,17256,sabana asli  kapau hj zaidar,Sabana Asli Nasi Kapau HJ Zaidar,-6.18,106.843, kapau raya satutiga,Nasi Kapau Raya Satu-tiga,-6.18,106.843,0.0,0.188,0.0,0.5,second_pass_relaxed
6292,55283,martabak pecenongan,Martabak Pecenongan 78 - Muara Karang,-6.12,106.783,martabak pecenongan 78,Martabak Pecenongan 78,-6.12,106.783,0.0,0.845,0.667,0.95,exact_location_moderate_name
6288,25364,martabak pecenongan,Martabak Pecenongan 78 - Pondok Pinang,-6.28,106.772,martabak pecenongan 78 ciputat,Martabak Pecenongan 78 Ciputat,-6.28,106.772,0.0,0.733,0.5,0.95,exact_location_moderate_name
6285,58329,martabak pecenongan,Martabak Pecenongan 78 - Kemayoran,-6.154,106.854,martabak pecenongan 78 kemayoran,Martabak Pecenongan 78 Kemayoran,-6.154,106.854,0.0,0.724,0.5,0.95,exact_location_moderate_name
6231,16599,mangkokku,Gambir - Jakarta,-6.169,106.83,mangkokku gambir,Mangkokku Gambir,-6.169,106.83,0.0,0.716,0.5,0.95,exact_location_moderate_name
6300,14371,marugame udon,F002. FOOD COURT SENAYAN CITY,-6.227,106.797,marugame udon  senayan city floor 5,Marugame Udon Foodcourt Senayan City Floor -5,-6.227,106.797,0.0,0.599,0.333,0.95,exact_location_moderate_name
6215,15321,mangkokku,Cloud Kitchen - Cempaka Putih Tengah (OLD),-6.177,106.872,mangkokku head office,Mangkokku Head Office,-6.177,106.872,0.0,0.613,0.333,0.95,exact_location_moderate_name
6172,2636,manadong,Manadong Kebon Jeruk,-6.17,106.779,manadong  kebon jeruk makanan manado,Manadong - Kebon Jeruk (Makanan Manado),-6.17,106.779,0.0,0.492,0.2,0.85,close_contains_match
6143,34100,malacca toast,Malacca Toast Kebayoran Park,-6.238,106.764,malacca toast  kebayoran park,Malacca Toast - Kebayoran Park,-6.238,106.764,0.0,0.69,0.5,0.95,exact_location_moderate_name
6137,5810,malacca toast,Malacca Toast Arjuna,-6.185,106.785,malacca toast arjuna,Malacca Toast Arjuna,-6.185,106.785,0.0,0.803,0.667,0.95,exact_location_moderate_name
6133,14665,malacca toast,Malacca Toast Pasar Baru,-6.161,106.831,malacca toast pasar baru,Malacca Toast Pasar Baru,-6.161,106.831,0.0,0.711,0.5,0.95,exact_location_moderate_name
6131,797,malacca toast,Malacca Toast Kedoya,-6.179,106.767,malacca toast kedoya,MALACCA TOAST Kedoya,-6.179,106.767,0.0,0.803,0.667,0.95,exact_location_moderate_name
6126,20007,makmur express panglima polim,MAKMUR EXPRESS PANGLIMA POLIM,-6.252,106.798,rowstid chikin panglima polim,Rowstid Chikin' Panglima Polim,-6.252,106.798,0.0,0.299,0.5,0.6,relaxed_wide_net
6179,18256,mang pondok ,Mang Pondok ayam,-6.17,106.87,pondok mang kumis,Pondok Mang Kumis,-6.17,106.87,0.0,0.395,0.667,0.75,token_overlap_close
6301,20672,marugame udon,F003. FOOD COURT AEON MALL TANJUNG BARAT,-6.306,106.84,marugame udon  aeon  tanjung barat,Marugame Udon Food Court AEON Mall Tanjung Barat,-6.306,106.84,0.0,0.633,0.4,0.95,exact_location_moderate_name
8701,37101,roti keset condet,RKC CONDET,-6.29,106.856,indomie  poernama condet raya,Indomie Restaurant Poernama (Condet Raya),-6.29,106.856,0.0,0.173,0.0,0.5,second_pass_relaxed
6312,1010,marugame udon,M026. PURI INDAH MALL,-6.188,106.734,marugame udon  indah ,Marugame Udon Puri Indah Mall,-6.188,106.734,0.0,0.81,0.667,0.95,exact_location_moderate_name
6384,7750,maudon,MAUDON KOSAMBI BARU,-6.17,106.717,maudon  cengkareng,MAUDON - Cengkareng,-6.17,106.717,0.0,0.657,0.5,0.95,exact_location_moderate_name
6380,21602,mates ,Mates Jakarta,-6.276,106.762,mates  ,Mates Coffee Jakarta,-6.276,106.762,0.0,1.0,1.0,0.95,exact_location_moderate_name
6373,21460,matang di pohon,Matang Di Pohon,-6.274,106.82,matang di pohon,Matang di Pohon,-6.274,106.82,0.0,1.0,1.0,0.95,exact_location_moderate_name
6370,342,matahari chinese food,Matahari Chinese Food Kemanggisan,-6.189,106.795,matahari chinese food kemanggisan,Matahari Chinese Food Kemanggisan,-6.189,106.795,0.0,0.833,0.75,0.95,exact_location_moderate_name
6354,63329,master boba,Master Boba - Proyek,-6.153,106.926,master boba proyek sukapura,Master Boba Proyek Sukapura,-6.153,106.926,0.0,0.674,0.5,0.95,exact_location_moderate_name
6337,725,marugame udon,R008. TAMAN ANGGREK,-6.177,106.793,marugame udon  taman anggrek,Marugame Udon Mall Taman Anggrek,-6.177,106.793,0.0,0.695,0.5,0.95,exact_location_moderate_name
6334,20081,marugame udon,R005. LIPPO MALL KEMANG,-6.261,106.813,marugame udon   kemang,Marugame Udon Lippo Mall Kemang,-6.261,106.813,0.0,0.803,0.667,0.95,exact_location_moderate_name
6327,41900,marugame udon,M102. MALL CIJANTUNG,-6.312,106.862,marugame udon  cijantung,Marugame Udon Mall Cijantung,-6.312,106.862,0.0,0.783,0.667,0.95,exact_location_moderate_name
6326,24066,marugame udon,M095. CILANDAK TOWN SQUARE,-6.291,106.799,marugame udon citos,Marugame Udon Citos,-6.291,106.799,0.0,0.81,0.667,0.95,exact_location_moderate_name
6325,48915,marugame udon,M083. EMPORIUM PLUIT,-6.127,106.791,marugame udon   lantai 3,"Marugame Udon, Emporium Mall, Lantai 3",-6.127,106.791,0.0,0.723,0.5,0.95,exact_location_moderate_name
6321,20480,marugame udon,M055. BLOK M PLAZA,-6.244,106.798,marugame udon  ,"Marugame Udon, Plaza Blok M",-6.244,106.798,0.0,1.0,1.0,0.95,exact_location_moderate_name
8636,21641, padang payakumbuah,RM Payakumbuah Veteran Bintaro,-6.264,106.766,sate padang ajo pirin,Sate Padang Ajo Pirin,-6.264,106.766,0.0,0.203,0.0,0.5,second_pass_relaxed
8638,20563, padang payakumbuah,RM Payakumbuah Kemang,-6.26,106.815,restoran payakumbuah kemang,"Restoran Payakumbuah, Kemang",-6.26,106.815,0.0,0.287,0.0,0.5,second_pass_relaxed
8658,24025,roemah palupie,Roemah Palupie,-6.29,106.8,wajan roemah citos,Wajan Roemah Citos,-6.29,106.8,0.0,0.25,0.0,0.5,second_pass_relaxed
6112,47305,maisen,Maisen MOI,-6.151,106.892,tonkatsu maisen  of ,Tonkatsu MAiSEN Mall of Indonesia,-6.151,106.892,0.0,0.583,0.333,0.95,exact_location_moderate_name
5503,37817, tarik edwin,KOPI TARIK EDWIN,-6.303,106.885, tarik edwin,Kopi Tarik Edwin,-6.303,106.885,0.0,1.0,1.0,0.95,exact_location_moderate_name
6111,20419,maisen,MAISEN,-6.244,106.784,tonkatsu maisen gandaria city,Tonkatsu MAiSEN Gandaria City,-6.244,106.784,0.0,0.503,0.25,0.95,exact_location_moderate_name
6098,19513,magal,Magal Ratu Plaza,-6.227,106.801,magal ratu ,Magal Ratu Plaza,-6.227,106.801,0.0,0.7,0.5,0.95,exact_location_moderate_name
5715,30246,lapo porsea,Lapo Porsea,-6.228,106.81,lapo porsea  scbd,LAPO PORSEA - SCBD,-6.228,106.81,0.0,0.811,0.667,0.95,exact_location_moderate_name
5706,43,lao lao huo guo,Lao Lao Huo Guo Puri Pesangrahan ,-6.187,106.755,lao lao huo guo  pesanggrahan,Lao Lao Huo Guo - Pesanggrahan,-6.187,106.755,0.0,0.809,0.75,0.95,exact_location_moderate_name
5688,24333,la trobe  brunch,La Trobe Coffee & Brunch,-6.283,106.8,la trobe   brunch,La Trobe Coffee & Brunch,-6.283,106.8,0.0,1.0,1.0,0.95,exact_location_moderate_name
5674,25533,kyuka ramen,Kyuka Ramen Blok M,-6.244,106.802,kyuka ramen  ,Kyuka Ramen - Blok M,-6.244,106.802,0.0,1.0,1.0,0.95,exact_location_moderate_name
5670,47245,kyochon,KYOCHON MALL KELAPA GADING,-6.157,106.908,kyochon 1991   ,Kyochon 1991 | Mall Kelapa Gading,-6.157,106.908,0.0,0.721,0.5,0.95,exact_location_moderate_name
5669,24535,kyochon,KYOCHON KEMANG 88,-6.27,106.815,kyochon 1991  kemang 88,Kyochon 1991 | Kemang 88,-6.27,106.815,0.0,0.545,0.25,0.95,exact_location_moderate_name
8950,11102,sambal rampai,Nyambel Rampai Geh - Gajah Mada,-6.155,106.817,nyambel rampai geh  gajah mada,Nyambel Rampai Geh - Gajah Mada,-6.155,106.817,0.0,0.224,0.0,0.5,second_pass_relaxed
8954,11904,sambal rampai,Nyambel Rampai Geh - Srengseng,-6.211,106.759,nyambel rampai geh  srengseng,Nyambel Rampai Geh - Srengseng,-6.211,106.759,0.0,0.241,0.0,0.5,second_pass_relaxed
5642,47284,kungfu hotpot,Kungfu Hotpot,-6.117,106.782,kungfu hotpot muara karang,Kungfu Hotpot Muara Karang,-6.117,106.782,0.0,0.7,0.5,0.95,exact_location_moderate_name
5632,20272,kung fu fried chicken,KUNGFU FRIED CHICKEN-BLOK M JAKARTA,-6.244,106.798,fried chicken master 1 ,Fried Chicken Master #1 BLOK M,-6.244,106.798,0.0,0.315,0.5,0.6,relaxed_wide_net
5631,60986,kung fu fried chicken,KUNGFU FRIED CHICKEN-EMPORIUM PLUIT MALL,-6.127,106.791,jiguang fried chicken  pluit,JIGUANG FRIED CHICKEN Emporium Pluit,-6.127,106.791,0.0,0.346,0.5,0.6,relaxed_wide_net
5627,2763,kumitiam,KUMITIAM,-6.16,106.786,kumitiam baked by kumi,KUMITIAM (baked by KUMI),-6.16,106.786,0.0,0.56,0.25,0.95,exact_location_moderate_name
5564,37027,koultoura,Koultoura Senopati,-6.236,106.811,koultoura ,Koultoura Coffee,-6.236,106.811,0.0,1.0,1.0,0.95,exact_location_moderate_name
5545,4563,kopitagram,"Kopitagram Tomang, Jakarta Barat",-6.179,106.801,kopitagram  tomang,Kopitagram - Tomang,-6.179,106.801,0.0,0.722,0.5,0.95,exact_location_moderate_name
8946,1465,sambal bu nik,SAMBAL BU NIK PENGUMBEN,-6.216,106.772,pecel lele yamaha sambal 3 rasa,Pecel Lele Yamaha Sambal 3 Rasa,-6.216,106.772,0.0,0.159,0.0,0.5,second_pass_relaxed
5868,8773,libero  and gelato,LIBERO COFFEE AND GELATO,-6.166,106.79,libero     gelato,Libero (Coffee • Kitchen • Gelato),-6.166,106.79,0.0,0.527,0.667,0.95,exact_location_moderate_name
5873,25694,life  coco,LIFE & COCO COTO,-6.249,106.757,life coco,Life Coco,-6.249,106.757,0.0,1.0,1.0,0.95,exact_location_moderate_name
6097,50,magal,Magal Puri,-6.191,106.753,mapo galmaegi  magal bbq ,Mapo Galmaegi - Magal BBQ Puri,-6.191,106.753,0.0,0.507,0.25,0.95,exact_location_moderate_name
6094,2703,magal,Magal Hublife,-6.181,106.792,magal korean bbq hublife ,Magal Korean BBQ Hublife Jakarta,-6.181,106.792,0.0,0.503,0.25,0.95,exact_location_moderate_name
8913,19509,salmon noodle 30,Salmon Noodle 3.0 - Plaza Senayan,-6.226,106.799,din tai fung noodle ,Din Tai Fung Noodle Bar,-6.226,106.799,0.0,0.221,0.0,0.5,second_pass_relaxed
6086,49582,madeskko,Madeskko,-6.11,106.917,mades ,MADES KITCHEN.,-6.11,106.917,0.0,0.531,0.0,0.95,exact_location_moderate_name
6084,14780,madcat,JIN LONG DIMSUM (MADAM CATERING CV),-6.176,106.816,madcat hauze,MADCAT HAUZE,-6.176,106.816,0.0,0.7,0.5,0.95,exact_location_moderate_name
6081,13357,madam sichuan,Madam SIchuan - Citywal Sudirman,-6.209,106.818,madam sichuan cs,Madam Sichuan CS,-6.209,106.818,0.0,0.836,0.667,0.95,exact_location_moderate_name
6073,20371,mad grass,Mad Grass Collaborative Space and Cloud Kitchen,-6.272,106.802,mad grass  the backyard,Mad Grass | The Backyard,-6.272,106.802,0.0,0.674,0.5,0.95,exact_location_moderate_name
6024,35063,lucy steak and buns,LUCY STEAK AND BUNS.,-6.242,106.804,lucy steak n buns,Lucy Steak n Buns,-6.242,106.804,0.0,0.523,0.75,0.95,exact_location_moderate_name
6010,25530,lucky peach,Lucky Peach Jakarta Selatan,-6.243,106.809,lucky peach diner,Lucky Peach Diner,-6.243,106.809,0.0,0.802,0.667,0.95,exact_location_moderate_name
5994,47133,louibelly,Louibelly,-6.147,106.908,louibelly,louibelly,-6.147,106.908,0.0,1.0,1.0,0.95,exact_location_moderate_name
5918,22196,livins sky lounge,LIVIN'S SKY LOUNGE,-6.268,106.824,livins sky lounge rooftop  shisha kemang,Livin's Sky Lounge Rooftop & Shisha Kemang,-6.268,106.824,0.0,0.682,0.5,0.95,exact_location_moderate_name
5914,25388,little ubud,LITTLE UBUD BINTARO.,-6.263,106.767,little ubud bintaro,Little Ubud Bintaro,-6.263,106.767,0.0,0.787,0.667,0.95,exact_location_moderate_name
5909,19992,little talk,LITTLE TALK BISTRO,-6.281,106.798,little talk ,Little Talk Bistro,-6.281,106.798,0.0,1.0,1.0,0.95,exact_location_moderate_name
5903,54066,little family by famili ria,Little Family by Famili Ria,-6.137,106.871,famili ria,Famili Ria,-6.137,106.871,0.0,0.622,0.4,0.95,exact_location_moderate_name
5895,4604,ling kee hainan,Ling Kee Hainan,-6.186,106.757,ling kee hainan  metro park,Ling Kee Hainan - Metro Park,-6.186,106.757,0.0,0.76,0.6,0.95,exact_location_moderate_name
6100,47653,magal,Magal PIK,-6.111,106.738,magal pik original  mapogalmaegi 新麻浦 마포갈매기 korean bbq house,Magal PIK Original - Mapogalmaegi 新麻浦 마포갈매기 Korean BBQ House,-6.111,106.738,0.0,0.392,0.111,0.85,close_contains_match
4404,44923,ichiban sushi,IS-Plaza Buaran,-6.218,106.924,ichiban sushi buaran ,ICHIBAN SUSHI BUARAN PLAZA,-6.218,106.924,0.0,0.803,0.667,0.95,exact_location_moderate_name
8516,20027,remboelan,Remboelan Pondok Indah Mall,-6.267,106.784,remboelan  street gallery,Remboelan - Street Gallery,-6.267,106.784,0.0,0.597,0.333,0.95,exact_location_moderate_name
8519,21094,remboelan,Remboelan Senayan City,-6.227,106.797,remboelan  senayan city,Remboelan - Senayan City,-6.227,106.797,0.0,0.608,0.333,0.95,exact_location_moderate_name
11324,37428,warteg kharisma bahari,Warteg Kharisma Bahari,-6.229,106.894,warteg kharisma bahari cipinang muara i,Warteg Kharisma Bahari Cipinang Muara I,-6.229,106.894,0.0,0.716,0.5,0.95,exact_location_moderate_name
4934,55070, es shanghai,Kedai Es Shanghai,-6.17,106.903, dan es gp,bakso dan es GP,-6.17,106.903,0.0,0.22,0.0,0.5,second_pass_relaxed
11301,37439,waroeng sambal bakar,Waroeng Sambal Bakar Jatiwaringin,-6.252,106.909,waroeng sambal bakar jatiwaringin,Waroeng Sambal Bakar Jatiwaringin,-6.252,106.909,0.0,0.826,0.75,0.95,exact_location_moderate_name
11285,18340,waroeng ilat jawa,Waroeng Ilat Jawa,-6.177,106.874,waroeng ilat jawa,Waroeng ilat Jawa,-6.177,106.874,0.0,1.0,1.0,0.95,exact_location_moderate_name
11247,62296,warkop gading agam,WARKOP GADING AGAM - KELAPA GADING,-6.146,106.91,warkop gading agam,Warkop Gading Agam,-6.146,106.91,0.0,1.0,1.0,0.95,exact_location_moderate_name
4959,18297,  tjap chilli,Kedai Mie Tjap Chili - Cempaka Putih,-6.171,106.868,  tjap chili cempaka putih,"Kedai Mie Tjap Chili, Cempaka Putih",-6.171,106.868,0.0,0.251,0.0,0.5,second_pass_relaxed
11336,49777, bang hen,MISOA KRIBO,-6.151,106.876, bang hen coco addict,Warung Bang Hen (Coco Addict),-6.151,106.876,0.0,0.671,0.5,0.95,exact_location_moderate_name
11229,46553,warkolas,WARKOLAS,-6.232,106.943,warkolas,Warkolas,-6.232,106.943,0.0,1.0,1.0,0.95,exact_location_moderate_name
11219,36324,warbun,Warbun Tebet,-6.242,106.852,sop buntut warbun tebet,"Sop Buntut Warbun, Tebet",-6.242,106.852,0.0,0.524,0.25,0.95,exact_location_moderate_name
11170,33214,vin,Vin+,-6.265,106.816,vin kemang,VIN+ Kemang,-6.265,106.816,0.0,0.638,0.5,0.95,exact_location_moderate_name
11145,26267,us pizza ,US Pizza Bintaro,-6.272,106.756,us pizza  bintaro,US PIZZA - Bintaro,-6.272,106.756,0.0,0.767,0.667,0.95,exact_location_moderate_name
11140,32774,urban wagyu,Urban Wagyu - PIM3,-6.264,106.783,urban wagyu  pondok indah  3,Urban Wagyu - Pondok Indah Mall 3,-6.264,106.783,0.0,0.638,0.4,0.95,exact_location_moderate_name
11107,30495,umamura somen,UMAMURA Somen,-6.242,106.808,umamura  nagashi somen  tempura,UMAMURA | Nagashi Somen & Tempura,-6.242,106.808,0.0,0.386,0.5,0.6,relaxed_wide_net
11103,35061,uma oma,UMA OMA CAFE,-6.244,106.802,uma oma ,UMA OMA CAFE,-6.244,106.802,0.0,1.0,1.0,0.95,exact_location_moderate_name
11220,3660,warcindo,Warcindo,-6.166,106.793,warcindo ,Warcindo 🤙🏻,-6.166,106.793,0.0,1.0,1.0,0.95,exact_location_moderate_name
11376,13069,  wajar,WARUNG NASI WAJAR,-6.168,106.724,  wajar,WARUNG NASI WAJAR,-6.168,106.724,0.0,1.0,1.0,0.95,exact_location_moderate_name
11391,4723, sambel bumer,Warung Sambel Bumer,-6.163,106.726, sambel bumer,Warung Sambel Bumer,-6.163,106.726,0.0,1.0,1.0,0.95,exact_location_moderate_name
11393,41457, sate solo pak nardi,Warung Sate Solo Pak Nardi,-6.36,106.884, sate solo pak nardicibubur,Warung Sate Solo Pak Nardi-cibubur,-6.36,106.884,0.0,0.793,0.75,0.95,exact_location_moderate_name
12080,55781,zenbu,ZENBU EMPORIUM,-6.127,106.791,zenbu ,Zenbu Emporium,-6.127,106.791,0.0,1.0,1.0,0.95,exact_location_moderate_name
12055,14540,yuan garden,KAY's Cafe,-6.163,106.832,yuan garden hotel pasar baru  ,"YUAN GARDEN HOTEL, Pasar Baru - Jakarta Pusat",-6.163,106.832,0.0,0.629,0.4,0.95,exact_location_moderate_name
12025,18598,yezbozz,Yezbozz Cabang Rawasari,-6.19,106.868,yezbozz,Yezbozz,-6.19,106.868,0.0,1.0,1.0,0.95,exact_location_moderate_name
12021,21160,yen signature,YEN SIGNATURE,-6.235,106.813,yen social ,Yen Social Jakarta,-6.235,106.813,0.0,0.316,0.5,0.6,relaxed_wide_net
12014,49924,yaoyao sauerkraut fish,Yao Yao Sauerkraut Fish Kelapa Gading,-6.159,106.907,yaoyao sauerkraut fish  gafoy ,Yaoyao Sauerkraut Fish - GAFOY Kelapa Gading,-6.159,106.907,0.0,0.864,0.75,0.95,exact_location_moderate_name
11988,1819,yakichan izakaya,Yaki-Chan Izakaya,-6.123,106.694,yakichan izakaya,Yaki-Chan Izakaya,-6.123,106.694,0.0,1.0,1.0,0.95,exact_location_moderate_name
11943,31118,xiboba,A - XI BO BA CILANDAK,-6.291,106.802,xiboba cilandak,Xiboba Cilandak,-6.291,106.802,0.0,0.671,0.5,0.95,exact_location_moderate_name
11906,47466,xiao xiang,Xiao Xiang - PIK,-6.089,106.744,xiao xiang  pik,XIAO XIANG - PIK,-6.089,106.744,0.0,0.817,0.667,0.95,exact_location_moderate_name
11905,53930,xiao xiang,MOI,-6.151,106.892,xiao xiang  moi,XIAO XIANG - MOI,-6.151,106.892,0.0,0.817,0.667,0.95,exact_location_moderate_name
11902,18293,xans reflexology,Xans Reflexology,-6.171,106.869,xans   bakmi,Xans Kopi & Bakmi,-6.171,106.869,0.0,0.249,0.5,0.6,relaxed_wide_net
11867,4620,wj de ,WJ DE CAFE,-6.15,106.78,wj de ,Wj De Cafe,-6.15,106.78,0.0,1.0,1.0,0.95,exact_location_moderate_name
11861,4036,wild orchid,Wild Orchid,-6.192,106.753,wild orchid,Wild Orchid,-6.192,106.753,0.0,1.0,1.0,0.95,exact_location_moderate_name
11407,61338,wasuka,Wasuk Teluk Gong,-6.141,106.786,wasuka,Wasuka,-6.141,106.786,0.0,1.0,1.0,0.95,exact_location_moderate_name
11401,721, talaga  toko yunsen,Warung Talaga Kemanggisan,-6.182,106.795, talaga kemanggisan,Warung Talaga Kemanggisan,-6.182,106.795,0.0,0.327,0.5,0.6,relaxed_wide_net
11397,32652, seblak emak gw,Warung Seblak Emak Gw,-6.246,106.785, seblak emak gw,Warung Seblak Emak Gw,-6.246,106.785,0.0,1.0,1.0,0.95,exact_location_moderate_name
11086,3003,tyfel,Tyfel Greenvile,-6.174,106.779,tyfel ,Tyfel Coffee,-6.174,106.779,0.0,1.0,1.0,0.95,exact_location_moderate_name
12085,30606,zenbu,ZENBU KOTA KASABLANKA,-6.224,106.843,zenbu kota kasablanka,Zenbu Kota Kasablanka,-6.224,106.843,0.0,0.549,0.333,0.95,exact_location_moderate_name
11083,13599,twelve chinese dining,Twelve Chinese Dining,-6.198,106.824,twelve chinese dining,Twelve Chinese Dining,-6.198,106.824,0.0,1.0,1.0,0.95,exact_location_moderate_name
11070,14350,tucanos,TUCANOS - SENAYAN CITY,-6.227,106.797,tucanos brazilian bbq senayan city ,Tucano's Brazilian BBQ (Senayan City Mall),-6.227,106.797,0.0,0.482,0.2,0.85,close_contains_match
10806,42243,the peoples ,"The People's Cafe, The Amboja",-6.31,106.901,the peoples   the amboja,The People's Cafe - The Amboja,-6.31,106.901,0.0,0.767,0.667,0.95,exact_location_moderate_name
10797,24836,the maple brasserie,The Maple Brasserie,-6.239,106.807,the maple brasserie,The Maple Brasserie,-6.239,106.807,0.0,1.0,1.0,0.95,exact_location_moderate_name
10795,47360,the lynx,The Lynx,-6.154,106.85,the lynx    lounge,The Lynx | Restaurant & Lounge,-6.154,106.85,0.0,0.775,0.667,0.95,exact_location_moderate_name
5597,296,krispy pork home,Krispy Pork Home,-6.171,106.746,krispypork home  crispy pork belly  bakmi babi  pork ribs,Krispypork Home - Crispy Pork Belly | Bakmi Babi | Pork Ribs,-6.171,106.746,0.0,0.2,0.0,0.5,second_pass_relaxed
10792,9969,the holyribs,The Holyribs - Arjuna,-6.19,106.759,the holyribs,The Holyribs,-6.19,106.759,0.0,1.0,1.0,0.95,exact_location_moderate_name
10788,36604,the garage pancoran,The Garage Pancoran,-6.245,106.842,garage pancoran      billiard,Garage Pancoran - Coffee | Eatery | Billiard,-6.245,106.842,0.0,0.409,0.667,0.75,token_overlap_close
10808,44824,the peoples ,"The People's Cafe, Mall Bassura City",-6.224,106.878,the peoples   bassura,The People's Cafe Mall @Bassura,-6.224,106.878,0.0,0.787,0.667,0.95,exact_location_moderate_name
10781,13911,the gade  gold,The Gade Sarinah,-6.188,106.823,the ,The Eatery,-6.188,106.823,0.0,0.546,0.333,0.95,exact_location_moderate_name
10767,30205,the  academics,Ashta District 8,-6.23,106.807,the  academics  ashta district 8,The Coffee Academics - ASHTA District 8,-6.23,106.807,0.0,0.641,0.4,0.95,exact_location_moderate_name
10766,47629,the  academics,PIK Avenue,-6.109,106.74,the  academics  pik avenue,The Coffee Academics - PIK Avenue,-6.109,106.74,0.0,0.711,0.5,0.95,exact_location_moderate_name
10744,20337,the canteen,Raja Riska Catering,-6.3,106.774,the forest ,The Forest Jakarta,-6.3,106.774,0.0,0.276,0.5,0.6,relaxed_wide_net
10740,33672,the buffalo express,"The Buffalo Express, Pasar Minggu",-6.287,106.844,the buffalo express pasar minggu cloud ,"The Buffalo Express, Pasar Minggu (Cloud Kitchen)",-6.287,106.844,0.0,0.7,0.5,0.95,exact_location_moderate_name
10737,30402,the buffalo express,"The Buffalo Express, Kebayoran Lama",-6.229,106.779,the buffalo express kebayoran lama cloud ,"The Buffalo Express, Kebayoran Lama (Cloud Kitchen)",-6.229,106.779,0.0,0.693,0.5,0.95,exact_location_moderate_name
10724,21267,thai street,Thai Street Setiabudi One,-6.215,106.83,thai street setiabudi one,Thai Street Setiabudi one,-6.215,106.83,0.0,0.683,0.5,0.95,exact_location_moderate_name
5630,16861,kung fu fried chicken,KUNGFU FRIED CHICKEN-GAJAH MADA PLAZA,-6.161,106.818,yangs braised chicken rice gajah mada ,Yang's Braised Chicken Rice Gajah Mada Plaza,-6.161,106.818,0.0,0.2,0.0,0.5,second_pass_relaxed
10811,8771,the peoples ,"The People's Cafe, Mall Ciputra",-6.168,106.787,the peoples  mal ciputra,The People's Cafe Mal Ciputra,-6.168,106.787,0.0,0.694,0.5,0.95,exact_location_moderate_name
10814,19506,the peoples ,"The People's Cafe, FX Sudirman",-6.225,106.804,the peoples  fx sudirman,The People's Cafe FX Sudirman,-6.225,106.804,0.0,0.694,0.5,0.95,exact_location_moderate_name
10815,21363,the peoples ,"The People's Cafe, Gandaria City",-6.243,106.784,the peoples   gandaria city,The People's Cafe - Gandaria City,-6.243,106.784,0.0,0.683,0.5,0.95,exact_location_moderate_name
11060,20021,tsuka ramen,"Tsuka Ramen, Kemang - Jakarta",-6.254,106.815,tsuka ramen kemang by legit ,Tsuka Ramen Kemang by Legit Group,-6.254,106.815,0.0,0.634,0.4,0.95,exact_location_moderate_name
11051,20388,tribe,TRIBE,-6.298,106.777,tribe ,Tribe Kitchen,-6.298,106.777,0.0,1.0,1.0,0.95,exact_location_moderate_name
10980,13910,tong house,TONG HOUSE,-6.186,106.825,tong house,Tong House,-6.186,106.825,0.0,1.0,1.0,0.95,exact_location_moderate_name
10968,607,tokyo ,TOKYO KITCHEN,-6.15,106.818,tokyo ,Tokyo Kitchen,-6.15,106.818,0.0,1.0,1.0,0.95,exact_location_moderate_name
5213,872,koka ramen express,Koka Ramen Express PHX Grogol,-6.166,106.792, kaleyo express grogol,Bebek Kaleyo Express Grogol,-6.166,106.792,0.0,0.249,0.0,0.5,second_pass_relaxed
10948,34538,tokoyo,TOKOYO KESEHATAN,-6.271,106.759,tokoyo ramen  bento,Tokoyo Ramen & Bento,-6.271,106.759,0.0,0.583,0.333,0.95,exact_location_moderate_name
10900,15697,tjikinii lima,Tjikinii Lima,-6.19,106.837,tjikinii lima,Tjikinii Lima,-6.19,106.837,0.0,1.0,1.0,0.95,exact_location_moderate_name
10882,1634,tiembi,Tiembi MERUYA,-6.197,106.729,tiembi  meruya,Tiembi - Meruya,-6.197,106.729,0.0,0.689,0.5,0.95,exact_location_moderate_name
10881,20175,tide  table,Tide & Table,-6.243,106.804,tide  table  ,Tide & Table — Restaurant,-6.243,106.804,0.0,1.0,1.0,0.95,exact_location_moderate_name
10865,48218,the rr chocolate,The RR Chocolate PIK,-6.11,106.741,the rr chocolate  pik avenue,The RR Chocolate - PIK Avenue,-6.11,106.741,0.0,0.763,0.6,0.95,exact_location_moderate_name
10858,20038,the roots salads,THE ROOTS SALADS,-6.272,106.821,the roots salads  como park kemang,"The Roots Salads @ Como Park, Kemang",-6.272,106.821,0.0,0.696,0.5,0.95,exact_location_moderate_name
10855,21134,the rica s1,THE RICA S1,-6.215,106.83,the rica   setiabudi one,The Rica Resto - Setiabudi One,-6.215,106.83,0.0,0.342,0.5,0.6,relaxed_wide_net
10842,21213,the peoples ,CloudKitchen Kuningan City - The People's Cafe,-6.225,106.83,the moving ,The Moving Restaurant,-6.225,106.83,0.0,0.276,0.5,0.6,relaxed_wide_net
10826,25842,the peoples ,"The People's Cafe, South Quarter",-6.294,106.785,the peoples  south quarter,The People's Cafe South Quarter,-6.294,106.785,0.0,0.683,0.5,0.95,exact_location_moderate_name
10824,23601,the peoples ,"The People's Cafe, Setiabudi One",-6.215,106.83,the peoples  setiabudi one,The People's Cafe Setiabudi One,-6.215,106.83,0.0,0.683,0.5,0.95,exact_location_moderate_name
11080,27492,turkuaz,Turkuaz,-6.237,106.807,turkuaz,Turkuaz,-6.237,106.807,0.0,1.0,1.0,0.95,exact_location_moderate_name
10723,19511,thai street,Thai Street Plaza Senayan,-6.226,106.799,thai street   senayan,Thai Street - Plaza Senayan,-6.226,106.799,0.0,0.787,0.667,0.95,exact_location_moderate_name
12088,47627,zenbu,ZENBU PIK AVANUE,-6.109,106.74,zenbu pik avenue,ZENBU PIK AVENUE,-6.109,106.74,0.0,0.576,0.333,0.95,exact_location_moderate_name
12090,19508,zenbu,ZENBU SENAYAN CITY,-6.227,106.797,zenbu senayan city,Zenbu Senayan City,-6.227,106.797,0.0,0.564,0.333,0.95,exact_location_moderate_name
2569,21322,de clan signature,de'Clan Signature Cipete,-6.278,106.8,declan signature cipete,de'Clan Signature Cipete,-6.278,106.8,0.0,0.32,0.0,0.5,second_pass_relaxed
2327,47073,cutt  grill,CUTT & GRILL PIK,-6.095,106.739,pig hunter grill pik,Pig Hunter Grill PIK,-6.095,106.739,0.0,0.24,0.0,0.5,second_pass_relaxed
2154,15692,ciasem 12,Ciasem 12,-6.194,106.841,tongseng  sate ciasem,Tongseng & Sate Ciasem,-6.194,106.841,0.0,0.224,0.0,0.5,second_pass_relaxed
4427,26329,iga bakar rajasa,Iga Bakar Rajasa,-6.241,106.845,roti bakar   tebet,ROTI BAKAR INDONESIA - TEBET,-6.241,106.845,0.0,0.23,0.0,0.5,second_pass_relaxed
2097,19062,chicken crush x,Chicken Crush X City Walk Sudirman,-6.209,106.818,bbq chicken citywalk sudirman,BBQ Chicken Citywalk Sudirman,-6.209,106.818,0.0,0.203,0.0,0.5,second_pass_relaxed
1882,26908,burger kalap,Burger Kalap Kemang,-6.256,106.813,2080 burger kemang,2080 Burger Kemang,-6.256,106.813,0.0,0.28,0.0,0.5,second_pass_relaxed
4400,18255,icha steakseafood,Icha steak&seafood,-6.17,106.87,icha steak  seafood,Icha steak & seafood,-6.17,106.87,0.0,0.391,0.0,0.5,second_pass_relaxed
1857,30676,bukit selatan,Bukit Selatan at LOT139,-6.221,106.854,bubur bayi happy tummy bukit duri  tebet,Bubur Bayi Happy Tummy Bukit Duri - Tebet,-6.221,106.854,0.0,0.142,0.0,0.5,second_pass_relaxed
1754,32408,bola ubi raos  square,Bola Ubi Raos Blok M Square,-6.245,106.8,yummy coin kawasan  square,Yummy coin kawasan Blok M square,-6.245,106.8,0.0,0.204,0.0,0.5,second_pass_relaxed
1730,19185,bogana may may,BOGANA MAY-MAY TERAS BENHIL,-6.214,106.815,bogana maymay teras benhil,Bogana May-May Teras Benhil,-6.214,106.815,0.0,0.275,0.0,0.5,second_pass_relaxed
1592,14357,block burger,Bloc Burger Pos Bloc Jakarta,-6.167,106.834,count three burger  comfort food  posbloc,Count Three Burger & Comfort Food - PosBloc,-6.167,106.834,0.0,0.151,0.0,0.5,second_pass_relaxed
1528,16783,bento yay sushi yay dimsum yay nayam fastfit  kulit pas kantong murame,Sushi YAY! Ps Baru Samanhudi,-6.162,106.832,sushi yay  ps baru samanhudi,Sushi Yay! - Ps. Baru Samanhudi,-6.162,106.832,0.0,0.137,0.0,0.5,second_pass_relaxed
1526,37317,bento yay sushi yay dimsum yay nayam fastfit  kulit pas kantong murame,Ramen Yuk Cipayung,-6.33,106.889,sushi yay  cipayung,Sushi Yay! - Cipayung,-6.33,106.889,0.0,0.183,0.0,0.5,second_pass_relaxed
1525,58508,bento yay sushi yay dimsum yay nayam fastfit  kulit pas kantong murame,Murame Sunter,-6.14,106.881,sushi yay  danau sunter,Sushi Yay! - Danau Sunter,-6.14,106.881,0.0,0.172,0.0,0.5,second_pass_relaxed
1776,19367,bowl two go,Bowls Two Go - Grand Indonesia,-6.195,106.82,sushi go,Sushi GO,-6.195,106.82,0.0,0.195,0.0,0.5,second_pass_relaxed
2879,30298,eats and co  festival,SATE TAICHAN HIRO,-6.221,106.833,solaria   festival  kuningan,Solaria - Plaza Festival Mall Kuningan,-6.221,106.833,0.0,0.213,0.0,0.5,second_pass_relaxed
2988,15733,es oyen koko,Es Oyen koko,-6.141,106.827,es campur 12 macam acang,Es Campur 12 Macam Acang,-6.141,106.827,0.0,0.124,0.0,0.5,second_pass_relaxed
2996,13071,es teh manis jawa,ES TEH MANIS JAWA ,-6.168,106.724, hedon dan es oyen duri kosambi,BAKSO HEDON DAN ES OYEN DURI KOSAMBI,-6.168,106.724,0.0,0.134,0.0,0.5,second_pass_relaxed
3670,133,golden lamian,GL-CITRA GARDEN CITY,-6.126,106.712,golden dragons   aquatics,Golden Dragon's Restaurant & Aquatics,-6.126,106.712,0.0,0.25,0.0,0.5,second_pass_relaxed
3635,47196,golden lamian,KUNGFU FRIED CHICKEN-MALL ARTHA GADING,-6.146,106.891,lamian palace   artha gading,Lamian Palace - Mall Artha Gading,-6.146,106.891,0.0,0.172,0.0,0.5,second_pass_relaxed
4093,41,hao hao dimsum,Hao Hao Dimsum,-6.171,106.746,haohao dimsum  chinese food,Haohao Dimsum & Chinese Food,-6.171,106.746,0.0,0.275,0.0,0.5,second_pass_relaxed
3525,13502,gion the sushi ,WEE NAM KEE - PLAZA SENAYAN,-6.226,106.799,sushi tei  senayan,Sushi Tei Plaza Senayan,-6.226,106.799,0.0,0.177,0.0,0.5,second_pass_relaxed
3521,4296,gion the sushi ,WEE NAM KEE - LIPPO MALL PURI,-6.188,106.739,sushi hiro   ,Sushi Hiro Lippo Mall Puri,-6.188,106.739,0.0,0.225,0.0,0.5,second_pass_relaxed
3519,32796,gion the sushi ,WEE NAM KEE - GANDARIA CITY,-6.263,106.782,shori sushi  pondok indah  3,"Shori Sushi Bar, Pondok Indah Mall 3",-6.263,106.782,0.0,0.162,0.0,0.5,second_pass_relaxed
3518,20455,gion the sushi ,TOKIO SUSHI - GANDARIA CITY,-6.245,106.784,tokio sushi,TOKIO SUSHI,-6.245,106.784,0.0,0.292,0.0,0.5,second_pass_relaxed
3516,20394,gion the sushi ,SUPER YAKINIKU PIM - 1,-6.265,106.784,the social pot pondok indah,The Social Pot Pondok Indah,-6.265,106.784,0.0,0.145,0.0,0.5,second_pass_relaxed
3514,19081,gion the sushi ,KATSUKITA - GRAND INDONESIA,-6.195,106.82,genki sushi   ,Genki Sushi - Grand Indonesia,-6.195,106.82,0.0,0.292,0.0,0.5,second_pass_relaxed
3509,20067,gion the sushi ,Gion Sushi Pondok Indah Mall 2,-6.266,106.783,tom sushi pondok indah ,Tom Sushi Pondok Indah Mall,-6.266,106.783,0.0,0.183,0.0,0.5,second_pass_relaxed
3417,61532,geprek gold chick,DURI KOSAMBI,-6.134,106.836, khansa  geprek,Warung Khansa Ayam Geprek,-6.134,106.836,0.0,0.22,0.0,0.5,second_pass_relaxed
3396,17771,geprek gian,GEPREK GIAN RAWASAWAH,-6.177,106.854, geprek  fillet geprek dapur jabrik,Ayam Geprek Ikan Fillet Geprek DAPUR JABRIK,-6.177,106.854,0.0,0.203,0.0,0.5,second_pass_relaxed
3181,55826,flip n fry,101 - EMPO,-6.127,106.791,chigo x flip burger   pluit,Chigo X Flip Burger - Emporium Pluit,-6.127,106.791,0.0,0.16,0.0,0.5,second_pass_relaxed
2999,28090,es teh poci  sila,Es Teh Poci Warung Sila,-6.346,106.815,es cendol nusantara  4,Es Cendol Nusantara cabang 4,-6.346,106.815,0.0,0.138,0.0,0.5,second_pass_relaxed
1524,44311,bento yay sushi yay dimsum yay nayam fastfit  kulit pas kantong murame,Murame Pahlawan Revolusi,-6.227,106.899, kulit mak igun pondok bambu,Nasi Kulit Mak Igun Pondok Bambu,-6.227,106.899,0.0,0.104,0.0,0.5,second_pass_relaxed
12089,32818,zenbu,ZENBU PIM 3,-6.264,106.782,zenbu pondok indah  3,ZENBU PONDOK INDAH MALL 3,-6.264,106.782,0.0,0.52,0.25,0.95,exact_location_moderate_name
1502,48242,bento yay sushi yay dimsum yay nayam fastfit  kulit pas kantong murame,YAY! Danau Sunter,-6.139,106.863,qpot grandeur hotpot grill dimsum,Qpot Grandeur Hotpot. Grill. Dimsum.,-6.139,106.863,0.0,0.099,0.0,0.5,second_pass_relaxed
1345,50722,beach day ,BC KANTIN,-6.117,106.858,bakmi naga  ancol beach city,Bakmi NAGA Resto Ancol Beach City,-6.117,106.858,0.0,0.183,0.0,0.5,second_pass_relaxed
702,11814, gepuk pak gembus,Ayam Gepuk Pak Gembus Srengseng Raya,-6.208,106.759,pecel lele pak edi jawa timur,Pecel Lele Pak Edi Jawa Timur,-6.208,106.759,0.0,0.17,0.0,0.5,second_pass_relaxed
4701,20097,junsei yakitori and ,Junsei Yakitori and Bar,-6.233,106.812,junsei izakaya  listening ,Junsei Izakaya & Listening Bar,-6.233,106.812,0.0,0.261,0.0,0.5,second_pass_relaxed
694,5905, gepuk pak gembus,Ayam Gepuk Pak Gembus Pegadungan,-6.134,106.703, pak de sarno wonogiri,Bakso Pak De Sarno Wonogiri,-6.134,106.703,0.0,0.148,0.0,0.5,second_pass_relaxed
676,57405, gepuk pak gembus,Ayam Gepuk Pak Gembus Walang Baru,-6.122,106.906,  pak soleh,Kedai bakso pak soleh,-6.122,106.906,0.0,0.22,0.0,0.5,second_pass_relaxed
573,42818, bakar dan  betawi ibu titin condet,ayam bakar dan soto betawi ibu titin condet,-6.282,106.855,chiclin raya condet,Chiclin Raya Condet,-6.282,106.855,0.0,0.165,0.0,0.5,second_pass_relaxed
572,25925, bakar dan  betawi bu titin cilandak,Ayam bakar dan soto betawi bu titin cilandak,-6.29,106.8,tac tongkrongan anak cilandak,TAC (Tongkrongan Anak Cilandak),-6.29,106.8,0.0,0.206,0.0,0.5,second_pass_relaxed
876,3652, kremes pramesti,AYAM KREMES PRAMESTI KOTA BAMBU,-6.186,106.807, goreng kremes mas faqih,Ayam Goreng Kremes Mas Faqih,-6.186,106.807,0.0,0.238,0.0,0.5,second_pass_relaxed
522,54578,atu dua iga sapi,ATU DUA IGA SAPI,-6.148,106.911,kwetiau sapi ht 78,Kwetiau Sapi HT 78,-6.148,106.911,0.0,0.181,0.0,0.5,second_pass_relaxed
345,238,amelies homemade food and cakes,Amelies Homemade Food and Cakes,-6.171,106.776, tim pasar pagi green ville  cahaya pagi chinese food,Nasi Tim Pasar Pagi Green Ville - Cahaya Pagi Chinese Food,-6.171,106.776,0.0,0.121,0.0,0.5,second_pass_relaxed
135,26052,2 madison,2Madison Cafe Plaza,-6.286,106.781,kari umbi  2,"Kari Umbi, Plaza 2",-6.286,106.781,0.0,0.13,0.0,0.5,second_pass_relaxed
43,5507,pide turkish pizza,Istanbul Kebab & Pide Turkish Pizza Kembangan,-6.211,106.734,pizza qu,Pizza Qu,-6.211,106.734,0.0,0.215,0.0,0.5,second_pass_relaxed
10,24373, uduk cipete 21,Nasi Uduk Cipete 21,-6.278,106.798,burger road mrt cipete raya,Burger Road MRT Cipete Raya,-6.278,106.798,0.0,0.203,0.0,0.5,second_pass_relaxed
12109,34895,ziggy,ZIGGY LOUNGE,-6.256,106.81,ziggy,Ziggy,-6.256,106.81,0.0,1.0,1.0,0.95,exact_location_moderate_name
503,20966,asli rojo sambel si aa,ROJO SAMBEL JAGAKARSA,-6.327,106.821,rojo sambel jagakarsa,Rojo Sambel Jagakarsa,-6.327,106.821,0.0,0.329,0.0,0.5,second_pass_relaxed
925,44522, penyet cabe ijo bu mega  pondok kelapa,Ayam Penyet Cabe Ijo Bu Mega - Pondok Kelapa,-6.231,106.926,bubur  bawain pondok kelapa,"Bubur Ayam Bawain, Pondok kelapa",-6.231,106.926,0.0,0.26,0.0,0.5,second_pass_relaxed
934,15356, presto nynita,Ayam Presto Ny. Nita-Cempaka Putih,-6.177,106.874,ceker presto aldeesa,Ceker Presto Aldeesa,-6.177,106.874,0.0,0.245,0.0,0.5,second_pass_relaxed
939,4078, presto nynita,OUTLET PESANGGRAHAN,-6.194,106.755, presto ny nita pesanggrahan,Ayam Presto Ny. Nita Pesanggrahan,-6.194,106.755,0.0,0.275,0.0,0.5,second_pass_relaxed
1326,50723,bc food arcade,BC Food Arcade,-6.117,106.858,gangnam korean street food,gangnam korean street food,-6.117,106.858,0.0,0.142,0.0,0.5,second_pass_relaxed
1319,21705,bbq chicken,"BB.Q Chicken, Pondok Indah Mall 2",-6.266,106.783,holdak crispy chicken,Holdak Crispy Chicken,-6.266,106.783,0.0,0.25,0.0,0.5,second_pass_relaxed
1316,47411,bb panda,BB Panda,-6.116,106.79,panda dim sum  pluit village ,Panda Dim Sum - Pluit Village Mall,-6.116,106.79,0.0,0.152,0.0,0.5,second_pass_relaxed
1305,40906,baso acimi  ciracas,Baso Acimi,-6.328,106.879,   suka mampir ciracas,Mie Ayam Bakso Suka Mampir Ciracas,-6.328,106.879,0.0,0.275,0.0,0.5,second_pass_relaxed
4553,19147,itude manado,Restoran iTUDE MANADO - Blora,-6.202,106.823,restoran  tude manado,Restoran Ikan Tude Manado,-6.202,106.823,0.0,0.306,0.0,0.5,second_pass_relaxed
1223,10999, sakti trisakti,Bakso Sakti Trisakti,-6.167,106.794,siomay queen trisakti,SIOMAY QUEEN TRISAKTI,-6.167,106.794,0.0,0.289,0.0,0.5,second_pass_relaxed
1186,35482, bakar taman,Bakso bakar taman ,-6.302,106.801,kantin mamake taman 08,Kantin mamake taman 08,-6.302,106.801,0.0,0.225,0.0,0.5,second_pass_relaxed
1137,47760,bakmi sw 18,Bakmi SW 18,-6.154,106.88,bakmi  dua saudara,BAKMI AYAM DUA SAUDARA,-6.154,106.88,0.0,0.23,0.0,0.5,second_pass_relaxed
4555,48560,itude manado,Restoran IKAN TUDE MANADO - Sedayu City,-6.161,106.927,restoran  tude manado,Restoran Ikan Tude Manado,-6.161,106.927,0.0,0.306,0.0,0.5,second_pass_relaxed
1082,49122,bakmi  juanli 98,BAKMI AYAM DENGKUL JUANLI 98,-6.103,106.742,bakmi afung medan 88 pik,Bakmi Afung Medan 88 PIK,-6.103,106.742,0.0,0.211,0.0,0.5,second_pass_relaxed
1075,45807,bakmi akwet berkat,Bakmi Akwet Berkat,-6.19,106.948,   berkat akuet,Rumah Makan Mie Berkat Akuet,-6.19,106.948,0.0,0.22,0.0,0.5,second_pass_relaxed
1003,20136,babyface planets,BABYFACE PLANETS,-6.256,106.812,baby face planets by mama rieta,Baby Face Planet's by Mama Rieta,-6.256,106.812,0.0,0.261,0.0,0.5,second_pass_relaxed
1002,47364,babyface planets,BABYFACE PLANETS PLUIT,-6.122,106.791,baby face planets ,Baby Face Planet's Restaurant,-6.122,106.791,0.0,0.391,0.0,0.5,second_pass_relaxed
941,36281, presto nynita,OUTLET TEBET,-6.241,106.847, presto ny nita tebet,Ayam Presto Ny. Nita Tebet,-6.241,106.847,0.0,0.316,0.0,0.5,second_pass_relaxed
1360,193,beatrice holding,BEATRICE QUARTERS CENTRAL PARK,-6.176,106.791,beatrice quarters central park,BEATRICE QUARTERS CENTRAL PARK,-6.176,106.791,0.0,0.21,0.0,0.5,second_pass_relaxed
8517,13688,remboelan,Remboelan Plaza Senayan,-6.226,106.799,remboelan  senayan,Remboelan Plaza Senayan,-6.226,106.799,0.0,0.708,0.5,0.95,exact_location_moderate_name
10720,25206,thai street,Thai Street Gandaria City,-6.244,106.784,thai street gandaria city,Thai Street Gandaria City,-6.244,106.784,0.0,0.683,0.5,0.95,exact_location_moderate_name
10692,47703,teratai jj aleng,Teratai JJ Muara Karang,-6.117,106.778,teratai jj aleng,Teratai JJ Aleng,-6.117,106.778,0.0,1.0,1.0,0.95,exact_location_moderate_name
6470,44189,   tole wonogiri  dermaga lama,Mie Ayam Bakso Tole Wonogiri - Dermaga Lama,-6.22,106.903,warteg putra bahari dermaga 150,Warteg Putra Bahari Dermaga 150,-6.22,106.903,0.0,0.197,0.0,0.5,second_pass_relaxed
9047,23124,sate padang jaso bundo,Sate Padang Jaso Bundo,-6.325,106.811,sate padang jaso bundo,Sate Padang Jaso Bundo,-6.325,106.811,0.0,1.0,1.0,0.95,exact_location_moderate_name
9042,24578,sate melawai,Sate Melawai,-6.246,106.802,  lokiin melawai,Rumah Makan Lokiin Melawai,-6.246,106.802,0.0,0.318,0.5,0.6,relaxed_wide_net
9041,22088,sate melawai,Sate Melawai,-6.244,106.801, sambel melawai,Ayam Sambel Melawai,-6.244,106.801,0.0,0.387,0.5,0.6,relaxed_wide_net
9034,43240,sate domstik hmsuryana,Sate Domstik H.M.Suryana,-6.247,106.909,sate domstik,Sate Domstik,-6.247,106.909,0.0,0.778,0.667,0.95,exact_location_moderate_name
9017,8336,sarjana burger,Sarjana burger,-6.148,106.751,sarjana burger,Sarjana burger,-6.148,106.751,0.0,1.0,1.0,0.95,exact_location_moderate_name
9072,24768,sate tegal ibu soedjani,Sate Tegal Ibu Soejani - Radio Dalam,-6.259,106.789, sate tegal ibu soejani radio dalam,Warung Sate Tegal Ibu Soejani Radio Dalam,-6.259,106.789,0.0,0.403,0.5,0.6,relaxed_wide_net
8997,19083,sankai,Sankai,-6.201,106.822,project sankai izakaya,Project Sankai Izakaya,-6.201,106.822,0.0,0.562,0.333,0.95,exact_location_moderate_name
8987,47239,sancha,Pantai Indah Kapuk,-6.09,106.742,sancha pik urban farm,Sancha PIK Urban Farm,-6.09,106.742,0.0,0.533,0.25,0.95,exact_location_moderate_name
8985,11370,sancha,Lippo Mall Puri,-6.188,106.739,sancha   ,Sancha Lippo Mall Puri,-6.188,106.739,0.0,1.0,1.0,0.95,exact_location_moderate_name
8972,18839,sampan bujana sentra,SAMPAN BUJANA SENTRA,-6.194,106.837,sampan bujana sentra,Sampan Bujana Sentra,-6.194,106.837,0.0,1.0,1.0,0.95,exact_location_moderate_name
8963,30473,sambel merintih aa,Sambel merintih aa,-6.213,106.836,sambel merintih aa,Sambel merintih AA,-6.213,106.836,0.0,1.0,1.0,0.95,exact_location_moderate_name
8958,10665,sambal seruit ,Sambal Seruit Indonesia - Kebon Jeruk,-6.198,106.765,sambal seruit   kebon jeruk,Sambal Seruit Indonesia - Kebon Jeruk,-6.198,106.765,0.0,0.705,0.5,0.95,exact_location_moderate_name
8955,5126,sambal rangkito,SAMBAL RANGKITO,-6.214,106.769,sambal rangkito,SAMBAL RANGKITO,-6.214,106.769,0.0,1.0,1.0,0.95,exact_location_moderate_name
8991,32488,sancha,Sancha Gandaria City,-6.244,106.783,sancha gandaria city,Sancha Gandaria City,-6.244,106.783,0.0,0.572,0.333,0.95,exact_location_moderate_name
9103,47566,scarlett,PIK OFLN - PT Scarlett Boga Indonesia,-6.094,106.744,scarletts café pantai indah kapuk,Scarlett's Café Pantai Indah Kapuk,-6.094,106.744,0.0,0.417,0.0,0.85,close_contains_match
9110,24817,seindonesia,Se'Indonesia - Kemang,-6.265,106.816,seindonesia  kemang flagship,Se'Indonesia - Kemang (Flagship),-6.265,106.816,0.0,0.607,0.333,0.95,exact_location_moderate_name
9111,1332,seindonesia,Se'Indonesia - Palmerah,-6.205,106.783,seindonesia  palmerah dinein  delivery,Se'Indonesia - Palmerah (Dine-In & Delivery),-6.205,106.783,0.0,0.54,0.25,0.95,exact_location_moderate_name
9304,19510,shaburi  kintan,Shaburi Kintan Senayan City,-6.227,106.797,shaburi  kintan buffet,Shaburi & Kintan Buffet,-6.227,106.797,0.0,0.807,0.667,0.95,exact_location_moderate_name
9300,30317,shaburi  kintan,Shaburi Kintan Ciputra World,-6.224,106.824,shaburi  kintan buffet  shopping avenue,Shaburi & Kintan Buffet Lotte Shopping Avenue,-6.224,106.824,0.0,0.625,0.4,0.95,exact_location_moderate_name
9284,27586,shabu kojo,Shabu Kojo Premium Satria Mandala,-6.232,106.819,shabu kojo premium satria mandala,Shabu Kojo Premium Satria Mandala,-6.232,106.819,0.0,0.6,0.4,0.95,exact_location_moderate_name
9242,49046,sen long,SEN LONG Kasir 2,-6.092,106.743,sen long  chinese food,SEN LONG - Chinese Food,-6.092,106.743,0.0,0.666,0.5,0.95,exact_location_moderate_name
9206,21171,seia ,SEIA Restaurant,-6.207,106.821,seia ,SEIA Restaurant,-6.207,106.821,0.0,1.0,1.0,0.95,exact_location_moderate_name
9205,15004,sei selatan,SEI SELATAN,-6.176,106.861,sei selatan  cempaka putih  daging sapi asap,Sei Selatan - Cempaka Putih - Daging Sapi Asap,-6.176,106.861,0.0,0.539,0.286,0.95,exact_location_moderate_name
9180,26053,sederhana,Sederhana Pondok Indah,-6.284,106.781,restoran sederhana pondok indah,Restoran Sederhana Pondok Indah,-6.284,106.781,0.0,0.535,0.25,0.95,exact_location_moderate_name
9179,33277,sederhana,Sederhana Cipete,-6.278,106.801,restoran sederhana  cipete,Restoran Sederhana - Cipete,-6.278,106.801,0.0,0.592,0.333,0.95,exact_location_moderate_name
9178,37537,sederhana,Sederhana Matraman,-6.202,106.857,sederhana,Sederhana,-6.202,106.857,0.0,1.0,1.0,0.95,exact_location_moderate_name
9177,18935,sederhana,Sederhana Cikini,-6.192,106.843,restoran sederhana cikini,Restoran Sederhana Cikini,-6.192,106.843,0.0,0.592,0.333,0.95,exact_location_moderate_name
9167,53903,sec bowl,Sec Bowl Sunter,-6.139,106.868,sec bowl sunter,"Sec Bowl, Sunter",-6.139,106.868,0.0,0.775,0.667,0.95,exact_location_moderate_name
9122,49119,seafood pasar ramai,Seafood Pasar Ramai,-6.104,106.741,seafood pasar ramai,Seafood Pasar Ramai,-6.104,106.741,0.0,1.0,1.0,0.95,exact_location_moderate_name
9118,1814,seafood bakaran ,002 SEAFOOD BAKARAN CITRA 5,-6.124,106.704,seafood bakaran  citra 5,Seafood Bakaran - Citra 5,-6.124,106.704,0.0,0.737,0.5,0.95,exact_location_moderate_name
9114,22515,seafood   uduk 67,Seafood & Nasi Uduk 67,-6.346,106.821,seafood 67  uduk,Seafood 67 Nasi Uduk,-6.346,106.821,0.0,0.64,1.0,0.95,exact_location_moderate_name
9112,21227,seindonesia,Se'Indonesia - Tebet,-6.229,106.855,seindonesia flagship tebet,Se’Indonesia Flagship Tebet,-6.229,106.855,0.0,0.612,0.333,0.95,exact_location_moderate_name
8941,29151,sambal bu nik,SAMBAL BU NIK SUPRAPTO,-6.334,106.836,aneka lauk sambal bu nik lenteng agung,Aneka Lauk Sambal Bu Nik Lenteng Agung,-6.334,106.836,0.0,0.624,0.429,0.95,exact_location_moderate_name
9312,53888,shake shake in a tub,Shake Shake In A Tub Sunter mall,-6.138,106.871,shake shake in a tub  sunter mal,Shake Shake in a Tub - Sunter Mal,-6.138,106.871,0.0,0.802,0.667,0.95,exact_location_moderate_name
8935,35127,sambal bakar ,022 SBI PESANGGRAHAN,-6.242,106.757,sambal bakar  pesanggrahan,"Sambal Bakar Indonesia, Pesanggrahan",-6.242,106.757,0.0,0.761,0.667,0.95,exact_location_moderate_name
8927,37588,sambal bakar ,005 SBI DUREN SAWIT,-6.222,106.915,sambal bakar  duren sawit,"Sambal Bakar Indonesia, Duren Sawit",-6.222,106.915,0.0,0.7,0.5,0.95,exact_location_moderate_name
8629,38099, amores,RM AMORES,-6.347,106.884, amores  siantar,RM. Amores Mie Siantar,-6.347,106.884,0.0,0.68,0.5,0.95,exact_location_moderate_name
8615,318,richeese factory,JALAN PANJANG,-6.197,106.769,richeese factory jalan panjang,Richeese Factory Jalan Panjang,-6.197,106.769,0.0,0.709,0.5,0.95,exact_location_moderate_name
8613,14281,richeese factory,BENHILL,-6.208,106.811,richeese factory bendungan hilir,Richeese Factory Bendungan Hilir,-6.208,106.811,0.0,0.7,0.5,0.95,exact_location_moderate_name
8606,24137,richeese factory,CILANDAK XPRESS,-6.298,106.815,richeese factory ragunan xpress,Richeese Factory Ragunan Xpress,-6.298,106.815,0.0,0.704,0.5,0.95,exact_location_moderate_name
8603,18640,richeese factory,UTAN KAYU,-6.193,106.865,richeese factory utan kayu,Richeese Factory Utan Kayu,-6.193,106.865,0.0,0.729,0.5,0.95,exact_location_moderate_name
8601,47330,richeese factory,KOJA TRADE MALL,-6.123,106.916,richeese factory koja trade ,Richeese Factory Koja Trade Mall,-6.123,106.916,0.0,0.723,0.5,0.95,exact_location_moderate_name
8637,21988, padang payakumbuah,RM Padang Payakumbuah Tebet,-6.234,106.846, payakumbuah tebet,"RM Payakumbuah, Tebet",-6.234,106.846,0.0,0.322,0.5,0.6,relaxed_wide_net
8596,24566,richeese factory,KEMANG,-6.27,106.816,richeese factory kemang,Richeese Factory Kemang,-6.27,106.816,0.0,0.813,0.667,0.95,exact_location_moderate_name
8594,55535,richeese factory,PIK,-6.113,106.752,richeese factory pantai indah kapuk,Richeese Factory Pantai Indah Kapuk,-6.113,106.752,0.0,0.648,0.4,0.95,exact_location_moderate_name
8587,18338,richeese factory,CEMPAKA PUTIH,-6.176,106.874,richeese factory cempaka putih,Richeese Factory Cempaka Putih,-6.176,106.874,0.0,0.709,0.5,0.95,exact_location_moderate_name
8586,455,richeese factory,DAAN MOGOT,-6.153,106.714,richeese factory daan mogot,Richeese Factory Daan Mogot,-6.153,106.714,0.0,0.723,0.5,0.95,exact_location_moderate_name
8555,47608,restoran kapten gurita,Restoran Kapten Gurita,-6.092,106.748,restoran kapten gurita,Restoran Kapten Gurita,-6.092,106.748,0.0,1.0,1.0,0.95,exact_location_moderate_name
8534,49326,resoles istimewa,Resoles Istimewa,-6.113,106.775,resoles istimewa,RESOLES ISTIMEWA,-6.113,106.775,0.0,1.0,1.0,0.95,exact_location_moderate_name
8532,48689,republik seafood,Republik Seafood - PIK,-6.088,106.731,republik seafood pik,Republik Seafood PIK,-6.088,106.731,0.0,0.833,0.667,0.95,exact_location_moderate_name
8595,36728,richeese factory,MAMPANG,-6.248,106.827,richeese factory mampang prapatan,Richeese Factory Mampang Prapatan,-6.248,106.827,0.0,0.696,0.5,0.95,exact_location_moderate_name
8654,3786,rocky rooster,Rocky Rooster,-6.191,106.782,rocky rooster,Rocky Rooster,-6.191,106.782,0.0,1.0,1.0,0.95,exact_location_moderate_name
8657,14642,roemah noni 1,Roemah Noni 1,-6.173,106.815,restoran roemah noni,Restoran Roemah Noni,-6.173,106.815,0.0,0.4,0.667,0.75,token_overlap_close
8660,20399,roji ramen,Roji Ramen Kamaja Blok M,-6.242,106.792,roji ramen kamaja,Roji Ramen Kamaja,-6.242,106.792,0.0,0.789,0.667,0.95,exact_location_moderate_name
8831,26361,salad point id,Salad Point ID - Tebet,-6.236,106.847,salad point id tebet,Salad Point ID Tebet,-6.236,106.847,0.0,0.847,0.75,0.95,exact_location_moderate_name
8829,43590,salad point id,Salad Point ID - Mall Bassura,-6.224,106.878,salad point id bassura,Salad Point ID Bassura,-6.224,106.878,0.0,0.833,0.75,0.95,exact_location_moderate_name
8801,13500,sakabe buffet,SAKABE BUFFET PASAR BARU,-6.162,106.832,sakabe buffet pasar baru,Sakabe Buffet Pasar Baru,-6.162,106.832,0.0,0.711,0.5,0.95,exact_location_moderate_name
8789,43115,sade juice,Sade Juice,-6.239,106.896,sade juice,SADE JUICE,-6.239,106.896,0.0,1.0,1.0,0.95,exact_location_moderate_name
8785,14334,sabi,SABI Express Sabang,-6.185,106.825,sabi express,SABI EXPRESS,-6.185,106.825,0.0,0.65,0.5,0.95,exact_location_moderate_name
6772,37119,mozarella corndog magenda  malaka jaya,Mozarella Corndog Magenda - Malaka Jaya,-6.218,106.931,acehnese noodle indra jaya ,Acehnese Noodle Indra Jaya Restaurant,-6.218,106.931,0.0,0.155,0.0,0.5,second_pass_relaxed
8739,24794,rumadara koetaradja,Rumadara Koetaradja,-6.272,106.8,rumadara koetaradja,Rumadara Koetaradja,-6.272,106.8,0.0,1.0,1.0,0.95,exact_location_moderate_name
8730,49037,rudy 89 sate babi  sop bakut,Rudy 89 Sate Babi & Sop Bakut,-6.139,106.866,sate babi  sop bakut 89 sunter,Sate Babi & Sop Bakut 89 Sunter,-6.139,106.866,0.0,0.489,0.833,0.75,token_overlap_close
6790,51407,muara kuring,Muara Kuring Golf Island,-6.117,106.781,wuji 78 kuotie muara karang pluit,WUJI 78 KUOTIE MUARA KARANG PLUIT,-6.117,106.781,0.0,0.19,0.0,0.5,second_pass_relaxed
6795,32372,mum dim sum store cipete,Mum Dim Sum Store Cipete,-6.279,106.805,twin house cipete,Twin House Cipete,-6.279,106.805,0.0,0.221,0.0,0.5,second_pass_relaxed
8695,13745,roti bakar kemang,Roti Bakar Kemang Pos Bloc Jakarta,-6.167,106.834,roti bakar kemang  posbloc ,ROTI BAKAR KEMANG @ Posbloc Jakarta,-6.167,106.834,0.0,0.843,0.75,0.95,exact_location_moderate_name
8693,48913,ropangbang,RopangBang!,-6.15,106.881,ropangbang,RopangBang,-6.15,106.881,0.0,1.0,1.0,0.95,exact_location_moderate_name
8682,5572,ropang dimadu,Ropang Dimadu,-6.215,106.726,ropang dimadu,Ropang Dimadu,-6.215,106.726,0.0,1.0,1.0,0.95,exact_location_moderate_name
8676,47045,roofpark  rempah sunda,Rempah Sunda PIK,-6.095,106.739,rempah sunda ,Rempah Sunda Restaurant,-6.095,106.739,0.0,0.785,0.667,0.95,exact_location_moderate_name
6605,47620,miss thai boat noodle,Miss Thai Noodle PIK,-6.109,106.74,busaba a thai café pik avenue,"Busaba a Thai Café, PIK Avenue",-6.109,106.74,0.0,0.176,0.0,0.5,second_pass_relaxed
10719,19297,thai street,Thai Street Citywalk Sudirman,-6.209,106.818,thai street citywalk sudirman,Thai Street Citywalk Sudirman,-6.209,106.818,0.0,0.665,0.5,0.95,exact_location_moderate_name
9314,49980,shanchan japanese food,SHANCHAN JAPANESE FOOD,-6.151,106.876,shanchan japanese food,Shanchan Japanese Food,-6.151,106.876,0.0,1.0,1.0,0.95,exact_location_moderate_name
9344,34790,shihlin,Kemang Village,-6.261,106.813,shihlin taiwan street snacks,Shihlin Taiwan Street Snacks,-6.261,106.813,0.0,0.52,0.25,0.95,exact_location_moderate_name
10307,47808,suji suan cai yu,MKG - Suji Suan Cai Yu,-6.157,106.91,suji  suan cai yu   ,Suji - Suan Cai Yu | Mall Kelapa Gading,-6.157,106.91,0.0,1.0,1.0,0.95,exact_location_moderate_name
10292,20152,suji suan cai yu,Pacific Place - Suji Suan Cai Yu,-6.225,106.81,suji  suan cai yu  pacific place,Suji - Suan Cai Yu | Pacific Place,-6.225,106.81,0.0,0.775,0.667,0.95,exact_location_moderate_name
10290,21677,suji suan cai yu,Pondok Indah Mall - Suji Suan Cai Yu,-6.267,106.784,suji  suan cai yu  street gallery pim,Suji - Suan Cai Yu | Street Gallery PIM,-6.267,106.784,0.0,0.717,0.571,0.95,exact_location_moderate_name
10283,20128,suji suan cai yu,Suji Suan Cai Yu Senayan City,-6.227,106.797,suji  suan cai yu  senayan city,Suji - Suan Cai Yu | Senayan City,-6.227,106.797,0.0,0.78,0.667,0.95,exact_location_moderate_name
10280,2942,suji suan cai yu,Glow Tower - Suji Suan Cai Yu,-6.153,106.797,suji  suan cai yu  glow tower,Suji - Suan Cai Yu | Glow Tower,-6.153,106.797,0.0,0.79,0.667,0.95,exact_location_moderate_name
10277,21128,suji suan cai yu,Su Wah - One Satrio,-6.226,106.826,suji  suan cai yu  one satrio,Suji - Suan Cai Yu | One Satrio,-6.226,106.826,0.0,0.79,0.667,0.95,exact_location_moderate_name
10312,23759,suka thai,One Satrio - Suka Thai,-6.226,106.826,suka thai  one satrio,Suka Thai | One Satrio,-6.226,106.826,0.0,0.686,0.5,0.95,exact_location_moderate_name
10255,52673,sudi mampir roxy,Sudi mampir roxy,-6.154,106.909,sudi mampir  cab jl roxy biak,Sudi Mampir Kelapa Gading cab. Jl Roxy Biak,-6.154,106.909,0.0,0.48,0.6,0.75,token_overlap_close
10242,25997,suck my duck,Suck My Duck - Hang Tuah,-6.304,106.778,suck my duck cloud ,Suck My Duck Cloud Kitchen,-6.304,106.778,0.0,0.84,0.75,0.95,exact_location_moderate_name
10236,15508,subway,SUBWAY GREEN PRAMUKA SQUARE,-6.189,106.874,subway  green pramuka square,Subway - Green Pramuka Square,-6.189,106.874,0.0,0.509,0.25,0.95,exact_location_moderate_name
5846,2836,lekker dan  by lekker story,Lekker dan kopi by Lekker Story,-6.18,106.784,sate  dan kambing pak kumis,Sate Ayam Dan Kambing Pak Kumis,-6.18,106.784,0.0,0.177,0.0,0.5,second_pass_relaxed
10207,49826,subway,SUBWAY SUNTER GREENLAKE,-6.145,106.877,subway  sunter,SUBWAY - SUNTER,-6.145,106.877,0.0,0.689,0.5,0.95,exact_location_moderate_name
10184,38205,steakment,Steakment,-6.188,106.891,steakment,STEAKMENT,-6.188,106.891,0.0,1.0,1.0,0.95,exact_location_moderate_name
10183,49079,steakloin pik,SteakLoin PIK,-6.112,106.742,steakloin steak burger pik,Steakloin Steak Burger PIK,-6.112,106.742,0.0,0.4,0.5,0.6,relaxed_wide_net
10250,12267,suck my duck,Suck My Duck Puri Indah Mall,-6.189,106.733,suck my duck quickie,Suck My Duck Quickie,-6.189,106.733,0.0,0.825,0.75,0.95,exact_location_moderate_name
10361,4283,sushi kaiyo,SUSHI KAIYO LIPPO PURI (SAINT MORITZ),-6.19,106.739,sushi go   ,Sushi GO! Lippo Mall Puri,-6.19,106.739,0.0,0.354,0.5,0.6,relaxed_wide_net
10380,36219,sushi stop,SUSHI STOP TENDEAN,-6.24,106.822,sushi stop tendean,"Sushi Stop, Tendean",-6.24,106.822,0.0,0.781,0.667,0.95,exact_location_moderate_name
10401,10460,sushi stop,SUSHI STOP KEMANGGISAN,-6.2,106.783,sushi stop kemanggisan,"Sushi Stop, Kemanggisan",-6.2,106.783,0.0,0.754,0.667,0.95,exact_location_moderate_name
10689,30750,teras mendoan anget,TERAS MENDOAN ANGET,-6.303,106.817,teras mendoan anget,TERAS MENDOAN ANGET,-6.303,106.817,0.0,1.0,1.0,0.95,exact_location_moderate_name
10683,51001,teras dapur jum,TERAS DAPUR JUM,-6.167,106.928,teras dapur jum,TERAS DAPUR JUM,-6.167,106.928,0.0,1.0,1.0,0.95,exact_location_moderate_name
10678,9283,tenns,Tenns Madison Park,-6.179,106.789,tenns tanjung duren selatan,Tenns Tanjung Duren Selatan,-6.179,106.789,0.0,0.494,0.25,0.85,close_contains_match
10671,39262,tempong tenda,NASI TEMPONG TENDA JATIWARINGIN,-6.249,106.908, tempong tenda cabke 2,Nasi Tempong Tenda Cab.Ke 2,-6.249,106.908,0.0,0.729,0.5,0.95,exact_location_moderate_name
10669,32604,tempong tenda,NASI TEMPONG TENDA TAMAN PURING,-6.242,106.79, tempong sultan,Nasi Tempong Sultan,-6.242,106.79,0.0,0.356,0.5,0.6,relaxed_wide_net
10567,12714,target ,Target Coffee - Wijaya,-6.145,106.78,target   wijaya,Target Coffee | Wijaya,-6.145,106.78,0.0,0.689,0.5,0.95,exact_location_moderate_name
10560,11369,tanghuo kungfu malatang,Tanghuo Kungfu Malatang,-6.188,106.739,mala    ,Mala Kitchen Lippo Mall Puri,-6.188,106.739,0.0,0.389,0.0,0.85,close_contains_match
10543,42847,takoyaki shukufuku,TAKOYAKI SHUKUFUKU INDOMARET BATU AMPAR 4,-6.279,106.861,takoyaki shukufuku batu ampar,Takoyaki Shukufuku Batu Ampar,-6.279,106.861,0.0,0.73,0.5,0.95,exact_location_moderate_name
10539,99,takeiko takoyaki,Takeiko Takoyaki - Kosambi,-6.182,106.721,takeikoyaki takoyaki,Takeikoyaki Takoyaki,-6.182,106.721,0.0,0.4,0.5,0.6,relaxed_wide_net
10485,26265,taduk  aceh,Taduk Kedai Aceh,-6.271,106.757,taduk  aceh,Taduk Kedai Aceh,-6.271,106.757,0.0,1.0,1.0,0.95,exact_location_moderate_name
10473,62269,swikee gloris,Swikee Gloris QJ,-6.146,106.909,swikee purwodadi gloris,Swikee Purwodadi Gloris,-6.146,106.909,0.0,0.483,0.667,0.75,token_overlap_close
10435,47420,sushi yen,SUSHI YEN,-6.124,106.743,sushi yen,Sushi Yen,-6.124,106.743,0.0,1.0,1.0,0.95,exact_location_moderate_name
10411,12876,sushi stop,SUSHI STOP KAPUK,-6.152,106.74,sushi stop kapuk,Sushi Stop Kapuk,-6.152,106.74,0.0,0.797,0.667,0.95,exact_location_moderate_name
10406,9196,sushi stop,SUSHI CAKE JAKARTA,-6.17,106.771,sushi stop greenville,Sushi Stop Greenville,-6.17,106.771,0.0,0.76,0.667,0.95,exact_location_moderate_name
10182,34763,steakloin,Steakloin Kemang,-6.26,106.816,steakloin steak burger kemang,Steakloin Steak Burger Kemang,-6.26,106.816,0.0,0.542,0.25,0.95,exact_location_moderate_name
9328,53982,shihlin,Mall Artha Gading,-6.146,106.892,shihlin mal artha gading,Shihlin Mal Artha Gading,-6.146,106.892,0.0,0.535,0.25,0.95,exact_location_moderate_name
10164,9383,steak gemoy,Steak Gemoy,-6.153,106.783,steak gemoy,Steak Gemoy,-6.153,106.783,0.0,1.0,1.0,0.95,exact_location_moderate_name
5853,12947,lekker story thi,Lekker story THI,-6.144,106.788,bakmi abeng thi,BAKMI ABENG THI,-6.144,106.788,0.0,0.177,0.0,0.5,second_pass_relaxed
9649,50811,soka fishball,Soka Fishball Sunter,-6.138,106.868,soka fresh fishball sunter,Soka fresh fishball Sunter,-6.138,106.868,0.0,0.4,0.5,0.6,relaxed_wide_net
9627,48854,smile kimbab,SMILE KIMBAB MOI,-6.151,106.892,smile kimbab moi 스마일 김밥 x hongkong banjum,Smile Kimbab MOI 스마일 김밥 X Hongkong Banjum,-6.151,106.892,0.0,0.536,0.25,0.95,exact_location_moderate_name
6168,23730,manado sadap,Manado Sadap Kuningan,-6.224,106.827,treska manado food  ambassador ,Treska Manado food | ambassador mall,-6.224,106.827,0.0,0.226,0.0,0.5,second_pass_relaxed
9530,25807,sliced pizzeria,Sliced Pizzeria Terogong,-6.282,106.793,sliced pizzeria,Sliced Pizzeria,-6.282,106.793,0.0,1.0,1.0,0.95,exact_location_moderate_name
9488,18294,sinar harapan 58,XANS Kopi & Bakmi,-6.171,106.869,bakmi harapan 58,Bakmi Harapan 58,-6.171,106.869,0.0,0.425,0.667,0.75,token_overlap_close
9465,48901,shu guo yin xiang,Shu Guo Yin Xiang Sunter,-6.14,106.857,shu guo yin xiang sunter,Shu Guo Yin Xiang Sunter,-6.14,106.857,0.0,0.869,0.8,0.95,exact_location_moderate_name
9656,15837,sola ristorante  bisteccheria,Sola Ristorante & Bisteccheria,-6.2,106.825,sola ristorante  bisteccheria,Sola Ristorante & Bisteccheria,-6.2,106.825,0.0,1.0,1.0,0.95,exact_location_moderate_name
9464,15186,shu guo yin xiang,Shu Guo Yin Xiang Sency,-6.227,106.797,shu guo yin xiang senayan city,Shu Guo Yin Xiang Senayan City,-6.227,106.797,0.0,0.784,0.667,0.95,exact_location_moderate_name
9459,49064,shu guo yin xiang,Shu Guo Yin Xiang PIK,-6.111,106.739,shu guo yin xiang pik,Shu Guo Yin Xiang PIK,-6.111,106.739,0.0,0.888,0.8,0.95,exact_location_moderate_name
9458,13358,shu guo yin xiang,Shu Guo Yin Xiang PI,-6.193,106.822,shu guo yin xiang  ,Shu Guo Yin Xiang Plaza Indonesia,-6.193,106.822,0.0,1.0,1.0,0.95,exact_location_moderate_name
9441,47341,shinkai toro,SHINKAI TORO RESTAURANT,-6.119,106.785,shinkai toro japanese ,Shinkai Toro Japanese Restaurant,-6.119,106.785,0.0,0.785,0.667,0.95,exact_location_moderate_name
9437,47670,shihlin,PIK Avenue,-6.109,106.74,shihlin pik avenue,Shihlin PIK Avenue,-6.109,106.74,0.0,0.601,0.333,0.95,exact_location_moderate_name
9397,37451,shihlin,Bassura Mall,-6.224,106.878,shihlin  bassura,Shihlin Mall @Bassura,-6.224,106.878,0.0,0.691,0.5,0.95,exact_location_moderate_name
9346,23843,shihlin,One Belpark,-6.305,106.795,shihlin  one belpark ,Shihlin - One Belpark Mall,-6.305,106.795,0.0,0.595,0.333,0.95,exact_location_moderate_name
9460,55878,shu guo yin xiang,Shu Guo Yin Xiang Pluit,-6.12,106.788,shu guo yin xiang hot pot pluit,Shu Guo Yin Xiang Hot Pot Pluit,-6.12,106.788,0.0,0.741,0.571,0.95,exact_location_moderate_name
9659,32426,solo pizza,Mata Karanjang Wijaya,-6.247,106.803,solo ristorante,Solo Ristorante,-6.247,106.803,0.0,0.301,0.5,0.6,relaxed_wide_net
9675,23636,sop  batam,Sop Ikan Batam Chillax - Sudirman,-6.211,106.821,sop  batam chillax,"Sop Ikan Batam, Chillax",-6.211,106.821,0.0,0.774,0.667,0.95,exact_location_moderate_name
9680,18993,sop konro rappocini,SOP KONRO RAPPOCINI,-6.175,106.853,sop konro rappocini,SOP KONRO RAPPOCINI,-6.175,106.853,0.0,1.0,1.0,0.95,exact_location_moderate_name
5893,23687,lima detik tebet,Kopi Lima Detik Tebet,-6.229,106.856,sate taichan goreng tebet,"Sate Taichan ""Goreng"" Tebet",-6.229,106.856,0.0,0.213,0.0,0.5,second_pass_relaxed
5955,31900,long feng tang kemang,Long Feng Tang Kemang,-6.278,106.811,sate senayan  kemang village,Sate senayan mall kemang village,-6.278,106.811,0.0,0.207,0.0,0.5,second_pass_relaxed
10026,56255,starbucks,STARBUCKS PLUIT JUNCTION,-6.117,106.79,starbucks,Starbucks,-6.117,106.79,0.0,1.0,1.0,0.95,exact_location_moderate_name
9993,23641,starbucks,STARBUCKS SATRIO TOWER,-6.225,106.83,starbucks kuningan city,Starbucks Kuningan City,-6.225,106.83,0.0,0.602,0.333,0.95,exact_location_moderate_name
9988,36247,starbucks,STARBUCKS TIS SQUARE,-6.243,106.848,starbucks tebet,Starbucks Tebet,-6.243,106.848,0.0,0.725,0.5,0.95,exact_location_moderate_name
9752,19308,sour sally,Sour Sally Senayan Park,-6.212,106.804,sour sally green senayan park,Sour Sally Green Senayan Park,-6.212,106.804,0.0,0.614,0.4,0.95,exact_location_moderate_name
6085,20274,mades  sol scbd,Made's Warung SOL SCBD,-6.226,106.807,tori ya scbd,"Tori Ya, SCBD",-6.226,106.807,0.0,0.218,0.0,0.5,second_pass_relaxed
9712,2573, betawi kusuma ayu,Soto Betawi Kusuma Ayu - Grogol,-6.166,106.784, betawi kusuma ayu  grogol,Soto Betawi Kusuma Ayu - Grogol,-6.166,106.784,0.0,0.849,0.75,0.95,exact_location_moderate_name
9702,243, betawi h mamat,Soto Betawi H.Mamat - Tomang,-6.176,106.799, betawi haji mamat,Soto Betawi Haji Mamat,-6.176,106.799,0.0,0.471,0.667,0.75,token_overlap_close
9695,39113, bening klaten bu poniyem,Soto Bening Klaten Bu Poniyem,-6.223,106.886, bening klaten bu poniyem,Soto Bening Klaten Bu Poniyem,-6.223,106.886,0.0,1.0,1.0,0.95,exact_location_moderate_name
9694,9747, banjar dan sate tulang borneo,Soto Banjar dan Sate Tulang BORNEO Puri Indah,-6.184,106.748, banjar  sate tulang borneo,Soto Banjar & Sate Tulang BORNEO,-6.184,106.748,0.0,0.598,0.8,0.95,exact_location_moderate_name
9689,13719,soten,Cut Mutia,-6.187,106.835,soten japanese charcoal grill,Soten Japanese Charcoal Grill,-6.187,106.835,0.0,0.488,0.25,0.85,close_contains_match
9687,27105,sorry sorry hansigjib,Sorry Sorry Hansigjib,-6.264,106.816,sorry sorry hansigjib,Sorry Sorry Hansigjib,-6.264,106.816,0.0,1.0,1.0,0.95,exact_location_moderate_name
10160,48454,steak banting,Steak Banting Pluit,-6.112,106.79,steak banting,Steak Banting,-6.112,106.79,0.0,1.0,1.0,0.95,exact_location_moderate_name
4403,20509,ichiban sushi,IS-Blok M Plaza,-6.244,106.798,ichiban sushi   ,Ichiban Sushi - Plaza Blok M,-6.244,106.798,0.0,1.0,1.0,0.95,exact_location_moderate_name
7797,17191,pisang madu pasti,PISANG MADU PASTI - MANGGA BESAR,-6.148,106.827,ubi madu sigiung,UBI MADU SIGIUNG,-6.148,106.827,0.0,0.244,0.0,0.5,second_pass_relaxed
